<?xml version="1.0"?>
<gpx version="1.1" creator="GPS Visualizer http://www.gpsvisualizer.com/" xmlns="http://www.topografix.com/GPX/1/1" xmlns:xsi="http://www.w3.org/2001/XMLSchema-instance" xsi:schemaLocation="http://www.topografix.com/GPX/1/1 http://www.topografix.com/GPX/1/1/gpx.xsd">
<wpt lat="56.06705" lon="26.14555">
  <name>Akmeņupes dabas taka</name>
  <desc>An old and overgrown path, but does have a few new picnic tables. There are no signs, so following the trail in it&#039;s entirety can be hard. We did not find it at one point, so had to turn back.</desc>
</wpt>
, <wpt lat="56.292172" lon="27.3871489">
  <name>Akmeņu taka</name>
  <desc></desc>
</wpt>
, <wpt lat="56.51011" lon="25.10556">
  <name>Aklā purva taka</name>
  <desc>A new duckboard in the Akla (Blind) mire. To arrive by car, you have to take the road from the western side. The road is narrow and can get muddy, so maybe leave the car and walk. There are a few benches along the path, but no tables.</desc>
</wpt>
, <wpt lat="56.332363" lon="21.722757">
  <name>Aizvīķu meža parks</name>
  <desc></desc>
</wpt>
, <wpt lat="55.892502" lon="27.134514">
  <name>Adamovas taka</name>
  <desc>The path is making loops and turns, there are a few bridges and duckboards, nice sloped forests. You can see views of the Daugava river and the Kraslava city.</desc>
</wpt>
, <wpt lat="57.668028" lon="26.078436">
  <name>Atpūtas vieta pie Kokšu (Zāļu) ezera</name>
  <desc></desc>
</wpt>
, <wpt lat="57.667707" lon="26.081553">
  <name>Atpūtas vieta pie Kokšu (Zāļu) ezera</name>
  <desc></desc>
</wpt>
, <wpt lat="57.673547" lon="26.077176">
  <name>Atpūtas vieta pie Kokšu (Zāļu) ezera</name>
  <desc></desc>
</wpt>
, <wpt lat="57.414209" lon="25.908362">
  <name>Atpūtas vieta pie Klievezera</name>
  <desc>A picnic and beach area in the Smiltene city. This is more of a rest stop with swimming opportunity, than a tent place, although there is nothing to stop you from camping here if the other nearby (better) spots are all taken.</desc>
</wpt>
, <wpt lat="57.229103" lon="25.674294">
  <name>Atpūtas vieta pie Kaupēna ezera</name>
  <desc>A picnic place nearby a lake, just beside a road. There are all the necessities, a table with a roof, toilets, fire pit with grill and hooks. Plenty of space for tents too.</desc>
</wpt>
, <wpt lat="56.806519" lon="26.560149">
  <name>Atpūtas vieta pie Kapu ezera</name>
  <desc>A nice lake with a wide and open space to build tents. Possible to swim, have a picnic. The area is close to the nearby settlement, so expect locals having fun and listening to music.</desc>
</wpt>
, <wpt lat="57.090676" lon="26.98981">
  <name>Atpūtas vieta pie Kaļņa ezera</name>
  <desc>A picnic area near the Kalna lake, there is a wooden structure with a table too, to save yourself from rain.</desc>
</wpt>
, <wpt lat="57.098195" lon="26.975669">
  <name>Atpūtas vieta pie Kaļņa ezera</name>
  <desc>A picnic area near a forest lake, with a small sheltered table</desc>
</wpt>
, <wpt lat="57.101788" lon="26.979161">
  <name>Atpūtas vieta pie Kaļņa ezera</name>
  <desc>A resting place near a forest lake, a nice place popular with local people who come here for a swim, or to spend the day.</desc>
</wpt>
, <wpt lat="56.087259" lon="27.124571">
  <name>Atpūtas vieta pie Jazinka</name>
  <desc></desc>
</wpt>
, <wpt lat="56.42794" lon="27.398318">
  <name>Atpūtas vieta pie Janopoles dīķa</name>
  <desc>A pleasant and nicely equipped picnic and tenting place near a small pond. Road is nearby, but does not disturb much. Pleasant and recommended.</desc>
</wpt>
, <wpt lat="57.5518676" lon="21.8675825">
  <name>Atpūtas vieta pie Irbes</name>
  <desc></desc>
</wpt>
, <wpt lat="57.884702" lon="24.996479">
  <name>Atpūtas vieta pie Ģendertu klints</name>
  <desc></desc>
</wpt>
, <wpt lat="57.618341" lon="25.700281">
  <name>Atpūtas vieta pie Gaujas tilta Strenči</name>
  <desc></desc>
</wpt>
, <wpt lat="57.618683" lon="25.697601">
  <name>Atpūtas vieta pie Gaujas tilta Strenči</name>
  <desc></desc>
</wpt>
, <wpt lat="57.392349" lon="26.429933">
  <name>Atpūtas vieta pie Gaujas (Tirziņas ieteka)</name>
  <desc>Picnic and camping place near the river Gauja. There is a sheltered table, fire place, lots of space for tents.</desc>
</wpt>
, <wpt lat="57.622992" lon="25.730339">
  <name>Atpūtas vieta pie Gaujas</name>
  <desc></desc>
</wpt>
, <wpt lat="57.618072" lon="25.708288">
  <name>Atpūtas vieta pie Gaujas</name>
  <desc></desc>
</wpt>
, <wpt lat="57.656719" lon="25.974467">
  <name>Atpūtas vieta pie Gaujas</name>
  <desc></desc>
</wpt>
, <wpt lat="57.668465" lon="25.977151">
  <name>Atpūtas vieta pie Gaujas</name>
  <desc></desc>
</wpt>
, <wpt lat="55.94057" lon="26.48627">
  <name>Atpūtas vieta pie Gaišezera</name>
  <desc></desc>
</wpt>
, <wpt lat="55.87359" lon="26.33071">
  <name>Atpūtas vieta pie Egļukalna</name>
  <desc></desc>
</wpt>
, <wpt lat="57.303034" lon="22.002346">
  <name>Atpūtas vieta pie Dūņezera</name>
  <desc></desc>
</wpt>
, <wpt lat="57.278775" lon="27.612895">
  <name>Atpūtas vieta Pie dīķa</name>
  <desc>A wonderful location in the middle of a forest, near a small artificial pond, suitable for swimming. There are two sheltered picnic tables. A very pleasant place to relax and spend the night in a tent.</desc>
</wpt>
, <wpt lat="57.894645" lon="25.014788">
  <name>Atpūtas vieta pie Dauģēnu klints</name>
  <desc></desc>
</wpt>
, <wpt lat="55.88766" lon="27.12854">
  <name>Atpūtas vieta pie Daugavas</name>
  <desc></desc>
</wpt>
, <wpt lat="57.59547" lon="26.229842">
  <name>Atpūtas vieta pie Darvas ezera</name>
  <desc></desc>
</wpt>
, <wpt lat="56.686943" lon="22.08452">
  <name>Atpūtas vieta pie Cieceres upes</name>
  <desc></desc>
</wpt>
, <wpt lat="57.653749" lon="26.193441">
  <name>Atpūtas vieta pie Cepurītes ezera</name>
  <desc></desc>
</wpt>
, <wpt lat="57.133691" lon="24.277486">
  <name>Atpūtas vieta pie Carnikavas</name>
  <desc></desc>
</wpt>
, <wpt lat="57.703433" lon="26.102653">
  <name>Atpūtas vieta pie Bekām</name>
  <desc></desc>
</wpt>
, <wpt lat="55.691979" lon="26.744766">
  <name>Atpūtas vieta Pērkules krauja</name>
  <desc></desc>
</wpt>
, <wpt lat="56.219528" lon="20.984109">
  <name>Atpūtas vieta Papes dabas parkā</name>
  <desc></desc>
</wpt>
, <wpt lat="56.243341" lon="20.993359">
  <name>Atpūtas vieta Papes dabas parkā</name>
  <desc></desc>
</wpt>
, <wpt lat="56.267235" lon="20.997412">
  <name>Atpūtas vieta Papes dabas parkā</name>
  <desc></desc>
</wpt>
, <wpt lat="57.916105" lon="25.003408">
  <name>Atpūtas vieta Nikuce</name>
  <desc></desc>
</wpt>
, <wpt lat="57.2293" lon="26.893682">
  <name>Atpūtas vieta Lāčauss</name>
  <desc></desc>
</wpt>
, <wpt lat="56.642008" lon="26.861485">
  <name>Atpūtas vieta Ķēķis</name>
  <desc>An old picnic place, nearly falling apart. A few benches and a fire place, located nearby two forest roads, nothing particularly interesting.</desc>
</wpt>
, <wpt lat="57.826578" lon="24.786158">
  <name>Atpūtas vieta Karogu karjers</name>
  <desc>A wonderful place on an island in an artificial lake. There are several picnic spots and a short trail to the Dzelzamurs stone. There are clean toilets provided.</desc>
</wpt>
, <wpt lat="56.309596" lon="21.452267">
  <name>Atpūtas vieta Kalētu upmalā</name>
  <desc></desc>
</wpt>
, <wpt lat="57.64437" lon="22.149445">
  <name>Atpūtas vieta Irbes ieteka</name>
  <desc>Many tent places in this area, where river Irbe enters the sea. There are tables and fire places near each spot. They are not specifically separated, but areas are quite distinct and wide enough for several large groups. Notice that this is a popular finishing place for boaters, so it gets busy.</desc>
</wpt>
, <wpt lat="57.639994" lon="25.978786">
  <name>Atpūtas vieta Iežuleja</name>
  <desc></desc>
</wpt>
, <wpt lat="57.901127" lon="25.005049">
  <name>Atpūtas vieta Ievlīči</name>
  <desc></desc>
</wpt>
, <wpt lat="57.49455" lon="24.58051">
  <name>Atpūtas vieta Dziļezers</name>
  <desc></desc>
</wpt>
, <wpt lat="57.834641" lon="24.785357">
  <name>Atpūtas vieta Dzelzsāmurs</name>
  <desc></desc>
</wpt>
, <wpt lat="57.861316" lon="25.03399">
  <name>Atpūtas vieta Draudzības pļaviņā</name>
  <desc></desc>
</wpt>
, <wpt lat="57.897001" lon="25.009927">
  <name>Atpūtas vieta Dauģēni</name>
  <desc></desc>
</wpt>
, <wpt lat="56.864164" lon="23.637536">
  <name>Atpūtas vieta ceļā uz Ložmetējkalnu</name>
  <desc></desc>
</wpt>
, <wpt lat="56.362567" lon="21.159062">
  <name>Atpūtas vieta Bārtas upes krastā</name>
  <desc>A resting place near the river Barta. There is a toilet, tables, overall a pleasant place. It is possible to reach it by car, from the western direction (Laukgals hamlet), accessible also from north (Kiburu road).</desc>
</wpt>
, <wpt lat="55.694115" lon="26.738502">
  <name>Atpūtas vieta Banksa priedes</name>
  <desc></desc>
</wpt>
, <wpt lat="56.768545" lon="21.295054">
  <name>Atpūtas vieta Avotu karjerā</name>
  <desc></desc>
</wpt>
, <wpt lat="56.791289" lon="27.180729">
  <name>Atpūtas vieta Akmens</name>
  <desc>A very secluded and hard to reach place, but pleasant and wide enough to have place for many tents. There is even a brick fireplace and a picnic house here. The river Iča is nearby, but it is very narrow and grown in, hard to even find it.</desc>
</wpt>
, <wpt lat="55.75948" lon="26.838831">
  <name>Atpūtas vieta</name>
  <desc></desc>
</wpt>
, <wpt lat="56.184355671" lon="27.3929929733">
  <name>Andrupenes purva taka</name>
  <desc></desc>
</wpt>
, <wpt lat="56.53859" lon="27.315228">
  <name>Ančupānu tornis</name>
  <desc></desc>
</wpt>
, <wpt lat="56.534635" lon="27.315968">
  <name>Ančupānu meža parks</name>
  <desc></desc>
</wpt>
, <wpt lat="57.22222" lon="25.23488">
  <name>Amatas ģeotaka</name>
  <desc></desc>
</wpt>
, <wpt lat="56.843189" lon="24.387388">
  <name>Ako piemiņas vieta</name>
  <desc>A big meadow with lots of space, but quite popular due to easy access to the river.</desc>
</wpt>
, <wpt lat="56.479328" lon="22.105548">
  <name>Atpūtas vieta Ventmala</name>
  <desc>Resting place at the Venta river, quite a way from the road, have to drive over a muddy forest road, which could be difficult in bad weather. In summer it is easier and the place is very wide and has a nice view. The amenities are old and there is a better picnic place near the bridge in Nigrande</desc>
</wpt>
, <wpt lat="57.877866" lon="24.591234">
  <name>Atpūtas vieta Vecvietas</name>
  <desc>A beautiful and well equipped picnic spot at the Salaca river. You can build tents, there are four separate picnic spots with tables, grill places, toilets, even firewood. An excellent location, easily accessible from the road or the river.</desc>
</wpt>
, <wpt lat="57.52097" lon="24.37807">
  <name>Atpūtas vieta Vasas</name>
  <desc>A huge free campground not far from the Tuja village. Has tables, fireplaces, toilets plenty of room for tents. The place is right on the beach, the individual spots are not physically separated, but since the territory is very big, there is no overcrowding. The only negative aspect could be that since this is a popular spot, there are always other campers and some of them might be noisy at night. Place is not managed or guarded, but is an official campground owned by state forest service. There are smaller picnic sites nearby this one, but we count them all as one area.</desc>
</wpt>
, <wpt lat="56.401778" lon="26.220981">
  <name>Atpūtas vieta Tīteņi Steķu silā</name>
  <desc>A picnic place located at a small forest lake, very secluded, can drive up from the north direction (see map). The equipment is old, but the table and benches are usable.</desc>
</wpt>
, <wpt lat="57.364014" lon="22.107398">
  <name>Atpūtas vieta Tikšanās vieta</name>
  <desc></desc>
</wpt>
, <wpt lat="57.280554" lon="26.666347">
  <name>Atpūtas vieta Šūpoles</name>
  <desc>An old picnic place in a forest, table is in bad condition and the place is run down, but can be used as a last resort tenting place.</desc>
</wpt>
, <wpt lat="55.832963" lon="27.240711">
  <name>Atpūtas vieta Šilovka</name>
  <desc></desc>
</wpt>
, <wpt lat="57.885608" lon="24.646828">
  <name>Atpūtas vieta Rozēnu tilts</name>
  <desc>A well equipped picnic and camping spot near the Salaca river. You can pitch tents, there are two tables near eachother at the side of the road. The tent you can also build near the river itself, but there isn&#039;t plenty of space. A wider area is located in a meadow near the road. Not spectacular, but good enough.</desc>
</wpt>
, <wpt lat="57.610324" lon="22.081704">
  <name>Atpūtas vieta Rojnieki</name>
  <desc></desc>
</wpt>
, <wpt lat="57.374589" lon="24.963482">
  <name>Atpūtas vieta Riebiņu ezers</name>
  <desc>A picnic place near Riebinu lake, more something of a swimming place, there is a dressing booth and the tables are pretty old, looks like local people visit this place often for swimming.</desc>
</wpt>
, <wpt lat="56.656299" lon="26.884861">
  <name>Atpūtas vieta Restorāns</name>
  <desc>A big picnic house with several tables, located on the crossroads of straight forest roads. Not a pleasant place, looks as if mostly hunters use it. In desperate situation you can eat here or pitch a tent, but the more logical step would be to go to the nearby Lubana lake.</desc>
</wpt>
, <wpt lat="57.923119" lon="24.972388">
  <name>Atpūtas vieta Ramata</name>
  <desc></desc>
</wpt>
, <wpt lat="56.155891" lon="26.209378">
  <name>Atpūtas vieta Raktais Ceļš</name>
  <desc></desc>
</wpt>
, <wpt lat="56.424901" lon="21.171525">
  <name>Atpūtas vieta Pūcīte</name>
  <desc></desc>
</wpt>
, <wpt lat="56.188861" lon="21.131909">
  <name>Atpūtas vieta Priežu mežs</name>
  <desc>A resting place in a forest. There is a huge, recently built table with a roof, a fire pit and other niceties.</desc>
</wpt>
, <wpt lat="56.419019" lon="25.934223">
  <name>Atpūtas vieta Piļkas</name>
  <desc>A rest area in the crossroads of some forest roads. The place is ok, but there is no table and no toilet, only a shelter, fire place, and some places for tents. Not a spectacular place, but maybe for a quick overnight sleep is fine.</desc>
</wpt>
, <wpt lat="56.836104" lon="23.696597">
  <name>Atpūtas vieta piecu ceļu krustā</name>
  <desc>A picnic place with several tables and a fire pit, near the intersection of five forest roads. The roads are not very active.</desc>
</wpt>
, <wpt lat="56.371814" lon="27.746079">
  <name>Atpūtas vieta pie Vorcu ezera</name>
  <desc>Near a forest gravel road, a small picnic place with a few new tables. The old ones are being used as firewood right now. A small access place to the lake, so you can have a swim too.  Possible to find a place for tent as well.</desc>
</wpt>
, <wpt lat="56.865245" lon="22.146794">
  <name>Atpūtas vieta pie Vārmes</name>
  <desc>A table with benches near a pond. Not very pleasant, the table is old, the place is open and near a road. Maybe a place to eat your sandwitch and stretch your legs, while passing by, nothing more. If no nicer alternatives, can build tents here.</desc>
</wpt>
, <wpt lat="57.749518" lon="25.773787">
  <name>Atpūtas vieta pie Valda ezera</name>
  <desc></desc>
</wpt>
, <wpt lat="57.555377" lon="27.11042">
  <name>Atpūtas vieta pie Vaidavas ezera</name>
  <desc></desc>
</wpt>
, <wpt lat="56.816678" lon="26.189864">
  <name>Atpūtas vieta pie Vadzola ezera</name>
  <desc></desc>
</wpt>
, <wpt lat="57.621014" lon="25.678421">
  <name>Atpūtas vieta pie Ūdriņām</name>
  <desc></desc>
</wpt>
, <wpt lat="57.851345" lon="25.857321">
  <name>Atpūtas vieta pie Suķiera ezera</name>
  <desc></desc>
</wpt>
, <wpt lat="57.672529" lon="25.996992">
  <name>Atpūtas vieta pie Spicu tilta</name>
  <desc></desc>
</wpt>
, <wpt lat="57.4233" lon="25.96233">
  <name>Atpūtas vieta pie Spiciera ezera</name>
  <desc></desc>
</wpt>
, <wpt lat="56.380888" lon="27.637155">
  <name>Atpūtas vieta pie Šostu ezera</name>
  <desc>A nice place near a forest lake. There is a picnic booth, a fire pit and space for tents. Very pleasant and recommended.</desc>
</wpt>
, <wpt lat="56.253703" lon="27.27435">
  <name>Atpūtas vieta pie Soročkas ezera</name>
  <desc></desc>
</wpt>
, <wpt lat="57.516309" lon="21.884517">
  <name>Atpūtas vieta pie Rindas upes</name>
  <desc></desc>
</wpt>
, <wpt lat="57.602846" lon="22.193698">
  <name>Atpūtas vieta pie Puteru ezera</name>
  <desc></desc>
</wpt>
, <wpt lat="56.210449" lon="28.010585">
  <name>Atpūtas vieta pie Plisūna (Plusona) ezera</name>
  <desc></desc>
</wpt>
, <wpt lat="56.999361" lon="21.69266">
  <name>Atpūtas vieta pie Pinku ezera</name>
  <desc></desc>
</wpt>
, <wpt lat="57.001364" lon="21.691186">
  <name>Atpūtas vieta pie Pinku ezera</name>
  <desc></desc>
</wpt>
, <wpt lat="57.285527" lon="24.894032">
  <name>Atpūtas vieta pie Pīļezera</name>
  <desc>Several resting places near a lake, surounded by forests. Appropriate to take a swim. A few simple tables in several places. Not very romantic, but good enough for a quick stop, meal and swim.</desc>
</wpt>
, <wpt lat="57.339285" lon="26.722992">
  <name>Atpūtas vieta pie Pātraža ezera</name>
  <desc>A picnic place near a forest lake. There is a sheltered table, fire place, access to the lake with a small pier. The place is nice and kept clean.</desc>
</wpt>
, <wpt lat="56.870344" lon="27.603313">
  <name>Atpūtas vieta pie Motrīnes ezera</name>
  <desc></desc>
</wpt>
, <wpt lat="57.508333" lon="27.158818">
  <name>Atpūtas vieta pie Meistara ezera (Malstara ezers)</name>
  <desc></desc>
</wpt>
, <wpt lat="56.922842" lon="26.511843">
  <name>Atpūtas vieta Pie medņa</name>
  <desc></desc>
</wpt>
, <wpt lat="56.764456" lon="27.150648">
  <name>Atpūtas vieta pie Lielā Svētiņu ezera</name>
  <desc>A nice lake with a picnic place, benches and a fireplace. Simple to reach by car, but very remote and secluded. Pleasant. Can build a tent or many.</desc>
</wpt>
, <wpt lat="56.23739" lon="27.053631">
  <name>Atpūtas vieta pie Līdaču (Leidaču) ezera</name>
  <desc></desc>
</wpt>
, <wpt lat="57.054828" lon="26.968765">
  <name>Atpūtas vieta pie Lazdaga ezera</name>
  <desc></desc>
</wpt>
, <wpt lat="56.710623" lon="22.291644">
  <name>Atpūtas vieta pie Lašupes dzirnavu dīķa</name>
  <desc>A nice place near a pond, there is a sheltered picnic table, a fire pit, the place is maintained and pleasant. A little secluded too.</desc>
</wpt>
, <wpt lat="57.991983" lon="25.418667">
  <name>Atpūtas vieta pie Laņģezera</name>
  <desc></desc>
</wpt>
, <wpt lat="56.331385" lon="21.38851">
  <name>Atpūtas vieta pie Krūtes pilskalna</name>
  <desc></desc>
</wpt>
, <wpt lat="56.229737" lon="28.037999">
  <name>Atpūtas vieta pie Kovšu ezerav (Kaušezers)</name>
  <desc></desc>
</wpt>
, <wpt lat="56.233471" lon="28.024167">
  <name>Atpūtas vieta pie Kovšu ezera (Kaušezers)</name>
  <desc></desc>
</wpt>
, <wpt lat="56.228944" lon="28.034751">
  <name>Atpūtas vieta pie Kovšu ezera (Kaušezers)</name>
  <desc></desc>
</wpt>
, <wpt lat="56.230069" lon="28.031398">
  <name>Atpūtas vieta pie Kovšu ezera (Kaušezers)</name>
  <desc></desc>
</wpt>
, <wpt lat="56.91659" lon="23.46516">
  <name>Lielā Ķemeru tīreļa laipa</name>
  <desc>Most probably the most popular mire trail in Latvia, recently rebuilt. This is the first boarded trail that got peoples attention, most likely because of the vicinity to the capital. Parking is 2EUR, toilets available.</desc>
</wpt>
, <wpt lat="57.16504" lon="24.84209">
  <name>Katlapiezis Sigulda</name>
  <desc></desc>
</wpt>
, <wpt lat="56.716568" lon="23.017921">
  <name>Kartavkalna taka</name>
  <desc>A wide territory with more than one walking path, several nice picnic places and a fire pit. There is a replica of an old latvian castle built here. The name &quot;Kartavkalns&quot; comes from latvian &quot;The Hanging mound&quot;.</desc>
</wpt>
, <wpt lat="57.81694" lon="25.61401">
  <name>Kārķu Lustiņdruvas taka</name>
  <desc></desc>
</wpt>
, <wpt lat="56.9915415" lon="23.4336358">
  <name>Kaņiera pilskalna tornis</name>
  <desc>A birdwatching tower at the Kaniera lake</desc>
</wpt>
, <wpt lat="56.99764" lon="23.4761">
  <name>Kaņiera niedrāja taka</name>
  <desc><p>A nice floating duckboard walk between the islands of the Kaniera lake. The trail is mounted on floating mounts, so you are walking on water - a very pleasant feeling. Plenty of different birds here and a wonderful view from the birdwatching tower.</p></desc>
</wpt>
, <wpt lat="56.99191" lon="23.42585">
  <name>Kaņiera pilskalna taka</name>
  <desc>A loop trail near the Kaniera lake, around 2.5km long, plenty of informational boards on the way. There is a birdwatching tower on the way. Fire is not permitted officially, although somebody has made an illegal fire pit near the tower picnic place. No toilet</desc>
</wpt>
, <wpt lat="57.000673" lon="23.471067">
  <name>Kaņiera ezera putnu tornis</name>
  <desc></desc>
</wpt>
, <wpt lat="57.214432" lon="22.643767">
  <name>Kamparkalna skatu tornis</name>
  <desc>This very high tower is located in the highest place of Northern Kurland, the hill called Kamparkalns.</desc>
</wpt>
, <wpt lat="57.438396" lon="22.909638">
  <name>Kaltenes putnu tornis</name>
  <desc>A birdwatching tower at the Kaltene bird trail. The trail itself is so old that you can barely follow it, although there is a new toilet at the free parking. We have placed the waypoint at the tower itself.</desc>
</wpt>
, <wpt lat="57.458136" lon="22.855719">
  <name>Kaltenes kalvas</name>
  <desc>In the forest, some one and a half kilometers from Kaltene beach, you will find interesting rock piles, which are called &quot;Kalvas&quot;. These uniquie formations are the only such things in the whole Latvian coastline. The trail will show you around them.</desc>
</wpt>
, <wpt lat="56.458694" lon="22.115837">
  <name>Kalnu dabas taka</name>
  <desc><p>This trail was opened in 2015. and is built by locals with assistance from various funds. The trail follows the Losis river, which is nice and picturesque at times. There are several nice picnic places along the way. The trail provides signs for a guessing game for kids in latvian language.</p></desc>
</wpt>
, <wpt lat="56.358114" lon="21.495379">
  <name>Kalētu dendroloģiskās takas</name>
  <desc></desc>
</wpt>
, <wpt lat="57.16621" lon="24.85332">
  <name>Jušu dabas taka</name>
  <desc>An interesting trail for children. They will have to find small pictures of the imaginary forest spirits. The trail starts near Sigulda castle. There is parking and toilets. Trail goes through a forested area and can sometimes be difficult to follow, use the map to follow the marked route.</desc>
</wpt>
, <wpt lat="57.843015" lon="25.447598">
  <name>Jēču taka</name>
  <desc></desc>
</wpt>
, <wpt lat="57.11317" lon="23.03877">
  <name>Jāņupītes taka</name>
  <desc>A nice forest trail. Suggested approach is from the north side, near the Dreimani homestead. There is a &quot;private property&quot; sign, but you can safely pass that, as there is no other way to get here.</desc>
</wpt>
, <wpt lat="57.0126641" lon="22.6245833">
  <name>Imulas upes taka</name>
  <desc>Imula flows into the river of Abava, it is a curved and steep coasted river. The length of this trail is around 5km and it will lead you until the Buse mound. The trail is badly marked and pretty overgrown, you will have to use the map to follow it. In the beginning there is a nice resting place and parking</desc>
</wpt>
, <wpt lat="57.5865" lon="26.874">
  <name>Ilgāja naudas akmens taka</name>
  <desc></desc>
</wpt>
, <wpt lat="56.1787431" lon="28.1144319">
  <name>Grebļu kalns</name>
  <desc></desc>
</wpt>
, <wpt lat="56.177783" lon="28.11183">
  <name>Grebļa kalns</name>
  <desc></desc>
</wpt>
, <wpt lat="57.516872" lon="26.400275">
  <name>Gaujienas taka</name>
  <desc></desc>
</wpt>
, <wpt lat="56.1" lon="25.81126">
  <name>Gārsenes parks</name>
  <desc>Around the river of Dienvidsuseja, near the Garsene casle, a whole system of short trails has been made. There are many camping and picnic places, including fire pits and a boat rental. We suggest you to start from the Garsene castle, where a ticket must be purchased.</desc>
</wpt>
, <wpt lat="56.551537" lon="27.884674">
  <name>Eversmuižas taka</name>
  <desc></desc>
</wpt>
, <wpt lat="57.3178117" lon="23.089361">
  <name>Engures ezera Z tornis</name>
  <desc>A newly built birdwatching tower inside a boating base. A private territory, so not really clear how much you can do here without renting a boat.</desc>
</wpt>
, <wpt lat="57.27163" lon="23.12672">
  <name>Engures ezera putnu tornis</name>
  <desc>A birdwatching tower in the Engure ornithology base. Free access, you can walk the Orchid trail on the way to the tower.</desc>
</wpt>
, <wpt lat="57.25762" lon="23.13675">
  <name>Engures ezera atpūtas vietas</name>
  <desc>Several picnic tables in the marked spot and to the south along the lake. Fire pit, toilets, plenty of room for tents as well. Don&#039;t miss the Orchid trail and birdwatching tower through the Ornithology base (free access).</desc>
</wpt>
, <wpt lat="56.51089" lon="21.8182">
  <name>Embūtes pilskalns</name>
  <desc><p>The Embute castle mound is an object of archeological importance, although no actually visible ruins remain here. You can find information about it in the town centre, there is an information office there. Near the mound you will find parking, a wide area for tents and a nice little stream with tasty fresh water. There is a short trail around the mound itself.&nbsp;</p></desc>
</wpt>
, <wpt lat="56.75499" lon="22.9264">
  <name>Elles kalns</name>
  <desc></desc>
</wpt>
, <wpt lat="57.911451" lon="24.499336">
  <name>Ēkāju ozols</name>
  <desc>A camping spot near a huge oak. There is a table, swings for children. You could pitch tents here without issue. The wooden equipment is old and there is a quarry nearby, so we can&#039;t recommend this for a special trip. Good only if passing by.</desc>
</wpt>
, <wpt lat="55.873201" lon="26.330263">
  <name>Egļukalna skatu tornis</name>
  <desc>Currently closed! (A great view from this high tower, when it was open)</desc>
</wpt>
, <wpt lat="57.501761" lon="24.581137">
  <name>Dziļezera-Riebezera taka</name>
  <desc>The trail makes a circle around one of the two lakes, over a narrow stretch of ground that separates them. Good boots recommended, as a few places gan get wet. The sign before the trail says you have to call to announce your visit. Otherwise the trail is free and owner is friendly. Path as such is maybe not very interesting, but the picnic places between the lakes are pleasant. The later visitors report, that now the trail costs 1EUR and the picnic site use costs 2EUR. You have to call the number listed on the sign at the entrance. </desc>
</wpt>
, <wpt lat="56.880211" lon="26.686533">
  <name>Dzērves kakls</name>
  <desc></desc>
</wpt>
, <wpt lat="56.06749" lon="26.17743">
  <name>Dvietes skatu platforma</name>
  <desc></desc>
</wpt>
, <wpt lat="56.280701" lon="21.382775">
  <name>Dunikas purva taka</name>
  <desc>A long duckboard trail over the Dunika mire. The route is several kilometers long, and goes in one direction, meaning you will have to retrace your steps back. In the middle of the mire you will find a unique hornbeam thicket (at south end of the trail). Can start from either end of trail.</desc>
</wpt>
, <wpt lat="56.8335449" lon="23.4011805">
  <name>Dunduru pļavu tornis</name>
  <desc>A birdwatching tower in the the Dunduri meadows, which surround the Slampe river, now restored to it&#039;s original path, after straightening in the soviet times. You can see wild cows here.</desc>
</wpt>
, <wpt lat="57.59448" lon="26.93333">
  <name>Drusku pilskalna taka</name>
  <desc>An interesting trail leading to the Drusku mound, which is one of the steepest mounds in Latvia.</desc>
</wpt>
, <wpt lat="56.68033" lon="26.21082">
  <name>Driksnis</name>
  <desc>The Driksnis lake picnic spot is a little shaded, has a picnic booth with a table, also has a table outside. There is a small pier to enjoy the view or swim. Toilet is provided.</desc>
</wpt>
, <wpt lat="57.87415" lon="24.99788">
  <name>Dauģēnu dabas taka</name>
  <desc></desc>
</wpt>
, <wpt lat="57.039653" lon="24.0131503">
  <name>Daugavgrīvas tornis</name>
  <desc></desc>
</wpt>
, <wpt lat="57.04642" lon="24.02154">
  <name>Daugavgrīvas mols</name>
  <desc>Not a proper trail, but a nice walk on the beach. The waypoint will bring you to a car parking where you can start your walk towards the Daugavgriva lighthouse. You can see sand dunes, old soviet buildings, WW1 bunkers and many other things on the way.</desc>
</wpt>
, <wpt lat="56.48993" lon="25.997589">
  <name>Dabas parks Laukezers</name>
  <desc>One of the purest lakes in Latvia, the Laukezers lakes is a protected area. There is a big parking area near a short boardwalk, which leads to the beach area. There is a dressing booth, a fire place with a grill. There is an icon on the info board, that tenting is not allowed, although there is plenty of room for this. A clean and nice toilet is available near the parking area.</desc>
</wpt>
, <wpt lat="56.240102" lon="21.403041">
  <name>Dabas lieguma Dunika skābaržu audze</name>
  <desc>A damp, dark and overgrown place, which can basically be used for parking the car and walking to the Dunika duckboard trail. The trail starts behind the picnic table, don&#039;t get lost - the trail is not near the sign. That just leads you into the deep forest.</desc>
</wpt>
, <wpt lat="57.02638" lon="22.78538">
  <name>Čužu purva taka</name>
  <desc><p class="lead">Cuzu mire trail is a pleasant daytrip with a nice picnic place near the river.&nbsp;</p>

<p>Of course, do not miss the Kandava city, a wonderful latvian town with charm of it&#39;s own. After you have seen Kandava, cross the bridge and turn to the direction of &quot;Zemite&quot;, after a few hundred meters you will find an arrow to the right, pointing towards the &quot;Cuzu purva dabas taka&quot;. The trail is 3km long and a section is made from wooden boards. On the way, you can turn towards the river Abava, to find a charming picnic place, with firewood and a firepit.&nbsp;</p>

<p>Later on the way you can make a small detour to reach the Devils stream, where you can drink wonderful clean water coming out from the earth. There are also wild cows nearby. Please don&#39;t pick the flowers, as they are most likely protective species that bloom during various periods during the summer.&nbsp;</p></desc>
</wpt>
, <wpt lat="57.30722" lon="25.2213">
  <name>Cīrulīšu dabas taka</name>
  <desc></desc>
</wpt>
, <wpt lat="56.131985" lon="26.9898">
  <name>Ciriša ezera upursalas taka</name>
  <desc>The trail is located on an island in the Cirisa lake. You can rent a boat from one of the houses nearby, if you ask around. If you have your own boat, the best place to start is behind the Aglona bandstand, where you will find a pleasant rest place and beach. The trail itself is very diverse and worth visiting. There are picnic places on the island.</desc>
</wpt>
, <wpt lat="56.8527813" lon="23.8253741">
  <name>Cenas tīreļa tornis II</name>
  <desc></desc>
</wpt>
, <wpt lat="56.8621035" lon="23.7940049">
  <name>Cenas tīreļa tornis I</name>
  <desc></desc>
</wpt>
, <wpt lat="56.862713" lon="23.78864">
  <name>Cenas tīreļa laipa</name>
  <desc>A mere twenty minutes drive from Riga you will find one of the finest boarded mire trails of Latvia. A wonderful swamp trail nearby the capital. There are toilets, picnic tables, information boards and a few birdwatching towers. 

To reach this place from the Riga direction, turn left at the sign &quot;Cielavas&quot; or &quot;Purva laipa&quot; (meaning mire trail). In the beginning, the trail will pass a peat harvesting area with a tower overlooking the peatland. A few information boards have been put up by the company that runs this place and you can learn about peat harvesting processes. A little bit further, the trail splits into two, creating the Cena Mire loop, turn right to see the wonderful Skaista lake (meaning Beautiful in latvian), and at the furthest reach of the trail, also a nice birdwatching/observation tower. 

Although unclear if this is actually permitted, we did camp here once with a tent, on a widened section of the wooden trail, see photos below. </desc>
</wpt>
, <wpt lat="56.415119" lon="21.2352">
  <name>Ceļa mala</name>
  <desc>An older picnic site near a road, not much room for a tent, but you can stop to have a meal here.</desc>
</wpt>
, <wpt lat="57.21873" lon="25.165">
  <name>Cecīļu dabas taka</name>
  <desc>The Cecilu trail will allow you to visit the Amata, Kumada and Dancu rivers and other nature sights in the region. Leave your vehicle a little before the trailhead, opposite the woodcutting company territory. The trail starts right before the gate to a private territory, there should be an arrow pointing left, to indicate start of the trail. The trail is a little over-maintained, with things like picnic places and even electrical lights.</desc>
</wpt>
, <wpt lat="57.438672" lon="21.661681">
  <name>Bušnieki</name>
  <desc></desc>
</wpt>
, <wpt lat="57.748807" lon="25.2911708">
  <name>Burtnieku ez. polderu tornis</name>
  <desc></desc>
</wpt>
, <wpt lat="57.0039713" lon="24.0201817">
  <name>Bumbu kalna tornis</name>
  <desc></desc>
</wpt>
, <wpt lat="56.905859" lon="22.394389">
  <name>Bezdibeņa ezera taka</name>
  <desc>A nice but short swamp trail near the Bezdibena lake (translated as Abyss). The trail is made of wooden planks, which have degraded over time, so it is in need of repairs and might be difficult with a stroller.</desc>
</wpt>
, <wpt lat="57.278229" lon="27.079416">
  <name>Bebru taka</name>
  <desc>A quite short trail in a forested area, with several activities for children. A little overgrown, has a few picnic spots, but not worth a special trip. Only if you need to stretch your legs when passing by.</desc>
</wpt>
, <wpt lat="57.13218" lon="27.229092">
  <name>Balvu vecais parks</name>
  <desc></desc>
</wpt>
, <wpt lat="56.54587" lon="26.00739">
  <name>Baļotes ezers</name>
  <desc>A nice beach near the Balote lake, good picnic tables, fire pits, toilet, parking. A pleasant place for tents with access to the lake.</desc>
</wpt>
, <wpt lat="57.51429" lon="25.013423">
  <name>Augstrozes pilskalns</name>
  <desc>A pleasant place that was recently renovated. You can stop here to see a castle mound with some ruins, a nice view, a short trail on the top and a small picnic spot. Photos before renovation.</desc>
</wpt>
, <wpt lat="57.096683" lon="22.262252">
  <name>Atpūtas vietas pie Segliņu ezera</name>
  <desc></desc>
</wpt>
, <wpt lat="57.431235" lon="25.974883">
  <name>Atpūtas vietas pie Niedrāja ezera</name>
  <desc>Several wonderful resting places around a forest lake, most of them nicely equipped with tables, firepits, grills, firewood and toilets. Some have nice swimming features and small piers with benches to enjoy the wonderful views. Highly recommended.</desc>
</wpt>
, <wpt lat="55.88645" lon="26.76511">
  <name>Atpūtas vieta Zemenīte</name>
  <desc></desc>
</wpt>
, <wpt lat="57.880382" lon="24.802305">
  <name>Atpūtas vieta Virši</name>
  <desc></desc>
</wpt>
, <wpt lat="57.860938" lon="24.797474">
  <name>Atpūtas vieta Vīķi</name>
  <desc></desc>
</wpt>
, <wpt lat="57.23362" lon="24.39314">
  <name>Saulrieta taka</name>
  <desc>This 3.6km long walk from the White dune to Peterupe is mostly on the beach and in the seaside dunes. It is possible to walk futher until Zvejniekciems village or as far as you desire, since most of the trail is unmarked and follows the coast.</desc>
</wpt>
, <wpt lat="56.2558" lon="25.46997">
  <name>Saukas ezers</name>
  <desc>A nice picnic and camping place near the Sauka lake (Saukas ezers), a perfect place to pitch tents. There are tables, a fire pit and good access to the lake for swimming or for a boat ride, if you take one with you. The place is not near a big road, so there should be no disturbance at night.</desc>
</wpt>
, <wpt lat="55.92927" lon="26.30388">
  <name>Sasaļu mežs</name>
  <desc>Picnic places near the Sasaļu lake. There are three swimming spots, the middle locations has a better table. This is a protected area with several important habitats and a eutrophic lake.</desc>
</wpt>
, <wpt lat="56.847531" lon="24.338808">
  <name>Salaspils pludmale</name>
  <desc>The beach near Salaspils has plenty of picnic tables, a childrens playground, swimming locations. The picnic spots have fire pits and the area is quite nice overall. Recently built. I would not say this is a place for tents, but some place to stop when passing by, to each lunch and stretch your legs. Maybe tenting is possible when no other options, because place is quite public.</desc>
</wpt>
, <wpt lat="57.5631" lon="26.9109">
  <name>Romeškalna taka</name>
  <desc>This trail connects the Romeslalns school and the Korneti town. This trail will show you views from the Liepinu house to the Korulu lake, and from the Legeni hill to the Korneti valley. Near the Vosvu farm you will find an ancient site - the Gods hill and the Mara stone. Along the way you will also see one of the biggest stones in the area - the Sipinu stone. The trail is marked with yellow triangles and white signs.</desc>
</wpt>
, <wpt lat="56.995067" lon="22.008163">
  <name>Riežupes dabas parks</name>
  <desc>A picnic area in the Riezupa nature park, near the river</desc>
</wpt>
, <wpt lat="56.736846" lon="22.698352">
  <name>Remtes parks</name>
  <desc>A nice park for walks, near the Remte manor.</desc>
</wpt>
, <wpt lat="57.8335461333" lon="24.3445014954">
  <name>Randu pļavu taka</name>
  <desc></desc>
</wpt>
, <wpt lat="57.44544" lon="26.34558">
  <name>Randatu taka</name>
  <desc>A short trail that starts near the Luiku home and continues along the Gauja river. There are dolomite outcrops and plenty of nice views. There is a small resting place near the river and a car parking spot at the trailhead.</desc>
</wpt>
, <wpt lat="57.58991" lon="26.9501168">
  <name>Raipala ezera taka</name>
  <desc>The trail goes past the Trumulisa and Ieva lakes, and then circles the Raipala lake, one of Latvias deepest lakes (36 meters). It is possible to make the walk shorter, by cutting back after the first lake and returning to Korneti. The trail is marked.</desc>
</wpt>
, <wpt lat="56.995699" lon="23.919282">
  <name>Ragakāpas dabas taka</name>
  <desc>A wooden walking path near the sea, leads among the pine forested dunes. Possibility to park for free and in general an interesting place to visit the sea in a less crowded place.</desc>
</wpt>
, <wpt lat="57.67974" lon="24.927314">
  <name>Purezera taka</name>
  <desc>A wonderful wooden path, in the beginning you go through a nice old forest and then make a circle around a small lake. There are nice picnic spots on the lake, with fire pits right on top of the water.</desc>
</wpt>
, <wpt lat="57.576864" lon="22.62787">
  <name>Pūrciema baltās kāpas taka</name>
  <desc>The Purciema Dune is 20 meters high. This wooden plank trail will bring you around the biggest of the dunes. The trail is 900 meters long, but is a pleasant walk and is recommended to stop here, if you do pass by. Free parking.</desc>
</wpt>
, <wpt lat="55.892638" lon="27.145689">
  <name>Priedaines skatu tornis</name>
  <desc>The second highest wooden viewing tower in Latvia is 32 meters tall. There is a nice picnic place available, and a bicycle route goes past it (&quot;Saulkrastu trail&quot;, 8km long). A fire pit is also available.</desc>
</wpt>
, <wpt lat="56.576725" lon="23.070652">
  <name>Pokaiņu mežs</name>
  <desc>All kinds of rock formations and piles around which there are many walking trails in the woods. The wood is silent and pleasant, even ignoring the supposed history of the rocks.</desc>
</wpt>
, <wpt lat="57.670888" lon="26.009261">
  <name>Plostu sienamā vieta</name>
  <desc>A resting place near Gauja, the official name is &quot;Raft lashing place&quot;. There are no tables and the place is quite dark, not very pleasant. We don&#039;t recommend it for picnics or tents.</desc>
</wpt>
, <wpt lat="57.087132" lon="23.259802">
  <name>Plieņciema taka</name>
  <desc>A shiors duckboard trail leads to the beach, where you will find a picnic place with tables and a toilet. A nice place to access the beach, but possibly it&#039;s too close to the nearby village, as it&#039;s often quite messy.</desc>
</wpt>
, <wpt lat="57.881084" lon="24.753968">
  <name>Planču purva taka</name>
  <desc>The Plancu bog trail is a short wooden plank trail with information boards written in Braille, and is also modified with a non-slippery surface to help people with special needs.</desc>
</wpt>
, <wpt lat="55.97714" lon="26.26633">
  <name>Pilskalnes Siguldiņa</name>
  <desc>A broad territory of many trails of different lenghts, an information center and beautiful lakes. Each trail has a different theme - the dendrology trail, the war bunker trail, the views trail etc. Entrance is 2.5EUR</desc>
</wpt>
, <wpt lat="56.185161" lon="27.604578">
  <name>Piloru ozolu audze</name>
  <desc></desc>
</wpt>
, <wpt lat="55.7970716" lon="27.4439833">
  <name>Piedrujas taka</name>
  <desc></desc>
</wpt>
, <wpt lat="57.6543666" lon="22.2706833">
  <name>Pēterezera taka</name>
  <desc>The start of the trail leads through a pine forest, later becomes narrower and can get steep, so stroller is not recoomended for the most part. There are many wooden bridges and wooden plank trails, so the trail shows quite a lot of different biotopes. There is a swamp lake on the way. A nice trail overall.</desc>
</wpt>
, <wpt lat="57.17008" lon="24.87426">
  <name>Pēteralas Raganu katla taka</name>
  <desc>The trail leads to several places, stops at Petera cave and leads to the Witches cauldron, a geological formation. The trail has several route options, is well marked and contains lots of stairs. Very icy in the winter, so we suggest to visit in warmer time.</desc>
</wpt>
, <wpt lat="57.5865" lon="26.874">
  <name>Peļļu taka</name>
  <desc></desc>
</wpt>
, <wpt lat="56.18742" lon="21.0149">
  <name>Papes putnu tornis</name>
  <desc>A birdwatching tower near the Pape lake</desc>
</wpt>
, <wpt lat="56.152" lon="21.0485">
  <name>Papes ezers</name>
  <desc>The Pape lake is a huge territory with many trails, birdwatching towers and other sites. Suggested to see the Pape website and visit the information center beforehand</desc>
</wpt>
, <wpt lat="57.3892728" lon="26.1859685">
  <name>Palsmanes piedzīvojumu taka</name>
  <desc>A circular tail around 2.2km long, with various optional routes, just follow the signs. The beginning is near a new information board at the Palsa river, near the bridge in Palsmane.</desc>
</wpt>
, <wpt lat="57.26036" lon="23.13511">
  <name>Orhideju taka</name>
  <desc>Park your car at the end of the straight road, near the picnic places and the lake. To the right, enter the ornithology complex to visit wild cows and horses, see the Orchid trail and the birdwatching tower. This trail starts near the ornithology base. Go straight into the gate and past the buildings until you find yourself on a road. This road will take you past wild horses and cows, until you will see a sign pointing to the Orchid trail.

Before you go on the trail, a little further along the road is a picnic place and a birdwatching tower on the lake. </desc>
</wpt>
, <wpt lat="57.8080275" lon="25.3689027">
  <name>Oleru putnu tornis</name>
  <desc>A birdwatching tower near the Oleri nature trail</desc>
</wpt>
, <wpt lat="57.8025" lon="25.374722">
  <name>Oleru purva taka</name>
  <desc>The trail leads you though a forest and then through the Oleri mire. A viewing platform is also there. Site includes open transitional mire (Oleru Mire) formed by terrestrialization surrounded by pine dominated bog woodland. Fragmentary, dry coniferous forests are found.</desc>
</wpt>
, <wpt lat="56.83409" lon="24.56513">
  <name>Ogres zilo kalnu tornis</name>
  <desc>A 30.5m high wooden tower at the Ogre blue hills. Nice views from the platform. Nearby is a nice place to have a swim.</desc>
</wpt>
, <wpt lat="56.82426" lon="24.5991">
  <name>Ogres zilie kalni</name>
  <desc><p>A walking route begins here and leads over the Blue Hills of Ogre. There are a few information boards on the way, the route is quite long and does not follow one certain path. This is more likely to a park. You can bike here, since there are wide paths and no stairs. At the end of the route, there is a flooded quarry where locals swim, also a high viewing platform (tower).</p></desc>
</wpt>
, <wpt lat="56.84587" lon="27.49738">
  <name>Numernes vaļņa taka</name>
  <desc>The trail takes to you to see the Numerne Protected Area, a Nature 2000 territory. There is a viewing tower, a trail and a picnic spot. This protected area includes an esker with coniferous forests. Bog woodland and three lakes (Numerne, Vidus and Kugrinu lakes) are found next to the esker. Transitional mires have developed in Vidus and Kugrinu lakes.</desc>
</wpt>
, <wpt lat="56.8456247" lon="27.4937687">
  <name>Numernes tornis</name>
  <desc></desc>
</wpt>
, <wpt lat="57.741426" lon="24.639322">
  <name>Niedrāju pilkas purvs</name>
  <desc>A nice 1.5km duckboard trail with a small birdwatching tower. A few beautiful mire lakes can be seen. The peculiar birdwatching tower was supposed to be renovated in early 2018, so it may be closed.</desc>
</wpt>
, <wpt lat="57.17594" lon="24.84729">
  <name>Murjāņi Sigulda</name>
  <desc></desc>
</wpt>
, <wpt lat="57.255841" lon="25.069419">
  <name>Mitoloģiskā taka pie Līgatnes bunkura</name>
  <desc>A nice short walk that begins at the Ligatne soviet bunker and makes a loop along the Gauja river. There are wooden figures along the way, so children will also enjoy it.</desc>
</wpt>
, <wpt lat="57.54892" lon="25.49478">
  <name>Mīlestības taka</name>
  <desc>A nice trail near the Abuls river, starts at the Jaunaraji commercial camground. A good picnic spot is available on the way, near the river. Follow the signs to &quot;Baili&quot; from Valmiera city. Keep following signs until you see another sign for Jaunaraji. You can safely enter the campgrounds and park somewhere out of the way, the owner is friendly and allows to pass here, especially if you introduce yourself as a trail visitor.</desc>
</wpt>
, <wpt lat="57.1004198" lon="24.8022831">
  <name>Mežmuižas avoti</name>
  <desc>A protected area where you will find a 700 meter long trail, there is a brook with excellent drinking water at the beginning. The entrance costs 1EUR but the territory is well maintained. Nice places for a picnic with excellent surroundings.</desc>
</wpt>
, <wpt lat="57.265912" lon="26.406984">
  <name>Meži ap Ādmiņa ezeru</name>
  <desc>A nice picnic place near a lake. Possible to park your car some 30 meters away, to reach the lake you must walk along a forest path. At the lake there is a covered picnic table, a fire pit and a small pier on the lake. Nearby there is a tiny stream where there once was a sluice, but now all that remains is a small waterfall.</desc>
</wpt>
, <wpt lat="57.3440937" lon="23.1242854">
  <name>Mērsrags - pļavas tornis</name>
  <desc>A new birdwatching tower on the beach in Mersrags.</desc>
</wpt>
, <wpt lat="57.3655392" lon="23.1232924">
  <name>Mērsrags - bākas tornis</name>
  <desc></desc>
</wpt>
, <wpt lat="56.9527769819" lon="23.5116702318">
  <name>Melnalkšņu dumbrāja taka</name>
  <desc>A short duckboard walk near the hedquarters of Ķemeri nature protection agency. The path is newly renovated and leads along some very interesting swamp habitat.</desc>
</wpt>
, <wpt lat="57.126002" lon="21.817925">
  <name>Melnais dīķis</name>
  <desc></desc>
</wpt>
, <wpt lat="57.458245" lon="26.109336">
  <name>Matuļu taka</name>
  <desc>The owners of the nearby farmstead, the Matulu family has made a trail for children, they have made several wood carvings and other objects that will give motivation for smaller children. There is also a playground and a resting place.</desc>
</wpt>
, <wpt lat="56.5633742" lon="26.375672">
  <name>Marinzejas ezers</name>
  <desc></desc>
</wpt>
, <wpt lat="57.010593" lon="24.99033">
  <name>Mālpils dabas taka</name>
  <desc>The trail begins at a huge oak tree, where you will find a toilet and a picnic place. The route takes you along the Merga river, the views are beautiful.</desc>
</wpt>
, <wpt lat="57.94669" lon="24.56291">
  <name>Purva trase</name>
  <desc>A covered picnic table, a fire pit. The place is very remote and located at the end of a road that leads nowhere. There is no space for a tent here. Not really worth going all this way just to picnic here.</desc>
</wpt>
, <wpt lat="56.483298" lon="25.016386">
  <name>LVM atpūtas vieta</name>
  <desc>A nice picnic place with big tables under a roof, a fire pit. A quiet place, the nearby road does not have a lot of traffic. Possible to pitch a tent.</desc>
</wpt>
, <wpt lat="56.598627" lon="23.0145747">
  <name>LVM Atpūtas vieta</name>
  <desc></desc>
</wpt>
, <wpt lat="56.71503" lon="26.7678">
  <name>Lubāna putnu tornis 2</name>
  <desc>One of several birdwatching towers around the Lubana lake. The place is quite remote.</desc>
</wpt>
, <wpt lat="56.79045" lon="26.82157">
  <name>Lubāna putnu tornis</name>
  <desc>One of several birdwatching towers around the Lubana lake. The place is quite remote.</desc>
</wpt>
, <wpt lat="56.797136" lon="26.934441">
  <name>Lubāna piknika vietas un pludmale</name>
  <desc>A great place to rest and swim, a wide beach-like area, many picnic tables, parking, dressing cabins and a short walking trail.</desc>
</wpt>
, <wpt lat="56.86587" lon="23.66051">
  <name>Ložmetējkalns</name>
  <desc>The Ložmetējkalns hill is located on one of the World War I battlefields. The high tower provides an overview of the surrounding forest.</desc>
</wpt>
, <wpt lat="57.127999" lon="25.160309">
  <name>Līgatnes upes taka</name>
  <desc>A trail through an old and beautiful forest near the Ligatne river. There are many interesting bridges and a magical feeling in the air. The trail can be steep and slippery. There are few nice picnic places on the way, including fire pits. To reach this place, follow the arrows that begin at the Kigari bus stop on the Nitaure highway.</desc>
</wpt>
, <wpt lat="57.24806" lon="25.01545">
  <name>Līgatnes dabas takas</name>
  <desc>A park with possibility to see different kind of latvian animals (not caged, but in wide fenced areas), walk in a forested area an eat pancakes in a low cost cafe. Gauja river is neaby too. Entry price 1.4EUR.</desc>
</wpt>
, <wpt lat="56.5119719" lon="21.0453027">
  <name>Liepājas ez. Zirgu salas (Golodova) tornis</name>
  <desc>A birdwatching tower on the Horse island in Liepaja</desc>
</wpt>
, <wpt lat="56.494377" lon="21.0244576">
  <name>Liepājas ez. taka un tornis (Tisē iela)</name>
  <desc>A 400 meter long duckboard trail leads to the Birdwatching tower on the Liepaja lake. Since it is located in a city, it can get busy and some of the infrastructure is in bad shape already.</desc>
</wpt>
, <wpt lat="57.50258" lon="24.70406">
  <name>Lielezera dabas taka</name>
  <desc>In the city of Limbazi there is a trail around the lake. On the way you will be able to visit a pleasant birdwatching tower, cross a reed field over a boardwalk and rest in the well maintained beach area.</desc>
</wpt>
, <wpt lat="56.270791" lon="27.6547405">
  <name>Lielais liepu kalns ar skatu torni</name>
  <desc>The highest wooden tower in Latvia (34m) sits on top of the Lielais Liepu kalns (The Big Linden hill, literally). On the way to the tower you will walk on a 890m path with information boards and will see a few very nice picnic places with fire pits and tent places.</desc>
</wpt>
, <wpt lat="57.390544" lon="25.4170417">
  <name>Līču Laņģu klintis</name>
  <desc>The Līču-Laņģu sanstone cliffs are around one kilometer long, and a stunning place to visit. The route is marked for around 6km, but options exist to shorten or extend your walk. Recommended to make a photo of the map on the first information board, it is detailed and good. Formerly a popular hikers area, now in 2015 a more specific route was marked in cooperation with EU and nature protection services, to protect the sandstone cliffs and nature around them. 

Although on the way you will see an arrow to the Grivini picnic place, indicating only 2km distance, follow this sign only after you have seen the kilometer long sandstone cliff formation, and if you want to hike through an unmaintained forest, crossing two rivers and following GPS maps, since there are no markings or easily visible trail to follow. </desc>
</wpt>
, <wpt lat="56.784705" lon="24.442064">
  <name>Lejas ezera atpūtas vieta</name>
  <desc>A picnic place at the Lejas lake, possibility to make a fire and pitch a tent.</desc>
</wpt>
, <wpt lat="57.0464" lon="23.35242">
  <name>Lāčupes dendroloģiskā taka</name>
  <desc>An interesting walk near a small stream. Could be hard to find, because there is no sign to it, and there is a distracting bigger trail that leads to the beach. Follow our map. The Dendrarium contains many foreing trees and bushes.</desc>
</wpt>
, <wpt lat="56.99134" lon="23.52379">
  <name>Kupskalnu dabas taka</name>
  <desc>A very short walk to the beach, free parking and good for a stroller. The view to the Riga bay is wonderful here.</desc>
</wpt>
, <wpt lat="57.825652" lon="24.335983">
  <name>Kuivižu putnu tornis</name>
  <desc></desc>
</wpt>
, <wpt lat="57.16365" lon="24.76881">
  <name>Kubeseles dabas taka</name>
  <desc>A nice walk where you can see forests, caves, streams and the river Gauja. Parking is free, near the church. Trail begins behind the church buildings, walk down the long stairway and turn left after the tiny bridge.</desc>
</wpt>
, <wpt lat="56.7306" lon="26.1414">
  <name>Krustkalnu skatu tornis</name>
  <desc>A very high metallic viewing tower in the Krustkalni nature reserve. Nothing much else here, just a huge tower.</desc>
</wpt>
, <wpt lat="56.5389668" lon="26.5676943">
  <name>Kristakrūga tornis</name>
  <desc>A very high metallic viewing tower in the Teiči nature reserve. Nothing much else here, just a huge tower, recently built, located at the side of a highway.</desc>
</wpt>
, <wpt lat="56.803354" lon="27.289815">
  <name>Krišjāņu Staburags</name>
  <desc></desc>
</wpt>
, <wpt lat="56.730372" lon="27.805203">
  <name>Kravcovka</name>
  <desc></desc>
</wpt>
, <wpt lat="55.885893" lon="27.18901">
  <name>Krāslavas priežu sils</name>
  <desc>Camping place near the city, in a park like forest. Nothing special.</desc>
</wpt>
, <wpt lat="55.720278" lon="26.789003">
  <name>Komsomoļskaja izba</name>
  <desc></desc>
</wpt>
, <wpt lat="57.757802104" lon="22.592021227">
  <name>Kolkas putnu tornis</name>
  <desc>A high observation tower in Kolka. Free parking and toilets nearby.</desc>
</wpt>
, <wpt lat="57.7563424985" lon="22.5905513763">
  <name>Kolkas priežu taka</name>
  <desc>A nice stroll though beautiful pines near the sea. The trail ends at a big viewing tower. The free parking has plenty of space so you can explore the area. There are big and comfortable toilets at the start of the trail, one of them wheelchair accessible</desc>
</wpt>
, <wpt lat="57.6753" lon="26.071">
  <name>Kokšu ezera taka</name>
  <desc>Not really a trail, more of a forest route with no special trail, only arrows marking the suggested direction. You can see several forest lakes and a typical Latvian forest habitat. The lakes have nice picnic places.</desc>
</wpt>
, <wpt lat="56.64129" lon="25.43403">
  <name>Kokneses dabas taka</name>
  <desc>The trail starts near the Koknese church, where you can leave your car. On the way there are several resting places with fire pits, but no benches. Koknese has plenty to offer, don&#039;t miss the castle ruins and the parks. This particular trail leads to the Liktendarzs (Destiny garden), so altogether you can make this a whole day walk.</desc>
</wpt>
, <wpt lat="57.651" lon="24.49082">
  <name>Ķirbižu meža taka</name>
  <desc>An interesting forest trail, looks like not many people have visited it. Many old trees and a feeling of an old forest. Can park near the Forest museum. Warning! Some visitors report that the bridge is out. May not be possible to fully complete the trail. </desc>
</wpt>
, <wpt lat="56.89936" lon="24.19276">
  <name>Ķengaraga putnu tornis</name>
  <desc>A nice place to have an evening walk right in the city. Views of Daugava river, benches and a long promenade. The birdwatching tower is located in an area where lots of birds flock, especially in the winter. Free parking.</desc>
</wpt>
, <wpt lat="57.1221528" lon="22.2809309">
  <name>Ziloņa ezers</name>
  <desc>Several picnic tables around the Zilona lake. A few have just a table, but others have a roof over it. Nice views on the lake. The best table is between the lakes and the one on the north shore.</desc>
</wpt>
, <wpt lat="57.62435" lon="22.27717">
  <name>Zilo kalnu kraujas tornis</name>
  <desc>A viewing platform near the Zilo kalnu (Blue hills) steep, right next to the highway from Dundaga to Mazirbe. A nice view, you can see the sea.</desc>
</wpt>
, <wpt lat="57.70281" lon="26.04685">
  <name>Zīles taka</name>
  <desc>The trail begins in the hamlet of Zile, the trail goes through an old forest with many fallen branches and thick, mossy trees. There are many information boards, bridges and a picnic place at the furthest point.</desc>
</wpt>
, <wpt lat="57.271597" lon="27.660503">
  <name>Žīguri</name>
  <desc>A covered picnic table, a fire pit and some other extras, but since this place is very near a populated place, it is very popular with local teens, so most likely you will find plenty of trash and unexpected party people in the middle of the night. Better visit the nearby Pond location (see map).</desc>
</wpt>
, <wpt lat="57.664389" lon="26.200806">
  <name>Ziemeļgaujas skatu tornis</name>
  <desc>A new, very tall tower, opened in 2015, shows the surrounding forests and a little bit of Gauja river.</desc>
</wpt>
, <wpt lat="56.984217" lon="21.578783">
  <name>Žibgravas veselības taka</name>
  <desc>This trail is located near the Zibgrava ravine and the Kaulina river. There is a picnic spot at the start of the trail.</desc>
</wpt>
, <wpt lat="57.106868" lon="22.049393">
  <name>Zārdava</name>
  <desc>A picnic spot</desc>
</wpt>
, <wpt lat="56.45708" lon="22.18053">
  <name>Zaņas līkloči</name>
  <desc>An old and unkept trail along the Zana river. The trail is made in three sections, the total length in one direction is 4.5Km, but there has been no upkeep so only the first short section can actually be found. The rest is grown in with weeds and bushes, no signs left. The first section goes along the picturesque Zana river, there are also a few picnic places on the way back, on the other side of the river. </desc>
</wpt>
, <wpt lat="56.96952" lon="24.48797">
  <name>Zaķumuižas dabas taka</name>
  <desc>This childrens learning trail starts in front of a kindergarden and leads along a river, where you will also see the local manor complex and a portion of the forest. The path makes for a nice stroll or a short city getaway. It is located within a populated area, but you will probably not meet many people.</desc>
</wpt>
, <wpt lat="56.418578" lon="23.539242">
  <name>Zaķu pļava (aiz muižas pie upes)</name>
  <desc>On the Hare meadow you can enjoy the cultural history of the local area and drink from the Lielmate spring.</desc>
</wpt>
, <wpt lat="56.42337" lon="23.530341">
  <name>Zaķu pļava</name>
  <desc>The Zaku meadow (literaly, Hare meadow) is located in the Vilce nature park. There are two huge picnic areas with sheltered tables and fire pits. The marked location is also the start of the Counts trail, which leads along the river and is 2.5km  long.</desc>
</wpt>
, <wpt lat="57.43061" lon="26.34762">
  <name>Vizlas taka</name>
  <desc>The beautiful path starts at the Vizla river bridge. It is the oldest arch bridge in Latvia, built around 1860. 

The Vizla river flows into the the river Gauja and by walking this path you will reach the Vizla entry point into Gauja. On the way you can see dolomite cliffs and the enormous Vizla stone. The path is 1.2 km long and you will require around one hour. In the beginning, you will walk around a wooden plank path, later on a earthen path, but the last section is along a road. 

The path leads along a local farmhouse, where you can see a few cows and the latvian way of life. </desc>
</wpt>
, <wpt lat="57.09328" lon="22.54209">
  <name>Virsaišu ūdenskrituma taka</name>
  <desc>The 1.7 meters tall Virsaisi waterfall was chosen as the 2010. geologic object of Latvia. The trail is marked with an arrow from the nearby road, and finishes at the waterfall. You can take the road back. There is a picnic site with a table at the waterfall.</desc>
</wpt>
, <wpt lat="57.1790199" lon="24.8227603">
  <name>Vikmestes taka</name>
  <desc>A new trail in Sigulda, which starts on the Turaida-Ragana road. There is a hidden parking place on a barely visible road, slow down or you will miss it. It is approximately opposite the Reina ski hill. The trail leads to the Serpentine road and has plenty of beautiful views in any season. Optional detours exist on the way, with possibility to climb the famous Sigulda hills to see the surroundings.</desc>
</wpt>
, <wpt lat="56.8911085" lon="25.9891576">
  <name>Viešūra ezera dabas taka</name>
  <desc>Trail that leads to the Viesura lake, it doesn&#039;t make a loop, so you will have to retrace your walk, totaling 3km. The trail is not in a good condition, but the picnic spot at the beginning is pretty new.</desc>
</wpt>
, <wpt lat="56.8236003" lon="22.9720596">
  <name>Viesatas upesloku takas</name>
  <desc><p class="lead">The Viesata river trail is probably our favorite trail in Latvia.</p>

<p>There are several routes you can take, the trail has wonderful picnic places on the way, river views, cliffs, a huge stone and more. The trail has a few routes, but we recommend to take the red&nbsp;trail in the beginning, and one of the other trails for coming back, since the red one has the best views. The first picnic place is some 2km away, so bring all the necessities with you, running back to the car will be tiresome.&nbsp;</p></desc>
</wpt>
, <wpt lat="56.6964547" lon="25.8236047">
  <name>Vesetas purva laipa</name>
  <desc>Trail located in the area of the Veseta bottomland, mostly made from wooden planks, which barely save you from wet shoes. The trail is quite old and rarely visited, since there exists no sign. Follow our map and you will find this quite interesting place in the middle of nowhere.</desc>
</wpt>
, <wpt lat="57.342096" lon="21.47777">
  <name>Ventspils piekraste</name>
  <desc>A picnic spot near the sea</desc>
</wpt>
, <wpt lat="57.356291" lon="21.499209">
  <name>Ventspils piekraste</name>
  <desc>A picnic spot near the sea</desc>
</wpt>
, <wpt lat="57.67268" lon="25.27013">
  <name>Velnkalna taka</name>
  <desc>An old and short trail, made back in 2006. The condition is not good right now. Many bridges and paths are grown into the forest. The trail is not near a road, you have to walk around 500m from the parking place until you can start looking for it (no sign either).</desc>
</wpt>
, <wpt lat="57.69667" lon="26.05285">
  <name>Vekšu taka</name>
  <desc>This trail is located 2.1km from Zīle settlement, as a continuation of the Zile nature trail. Information boards will teach you about the plants and insects of this area.</desc>
</wpt>
, <wpt lat="56.95766" lon="25.43373">
  <name>Vedzes dabas taka</name>
  <desc>A recently renovated, quite wild path in a remote area. A small river, dense forest and even a swamp with a sinkhole can be observed on the way. People with interest in the wilder nature will enjoy this walk. This path starts in a remote area. There is one place for parking, but not much else at the marked trailhead. The path is not covered, basically a narrow path in the forest ground. Follow the directional arrows or marker poles. Around 600m from the trailhead there is a fork with a separate path to a picnic area. The place is neat, in a river curve. There is a table and a firepit. If you continue the path, it will follow the riverbank and then fork to make a loop (you will return in the fork). Be aware that some portions of the trail can be wet and the ground can get muddy there, so good shoes are recommended. One part even leads through a swampy area (see photos). Another small path leads to the swamp sinhole, which can be an interesting (or even scary) sight. The path will then continue through a bit of cut down forest and will then circle back to the part where you have already been - follow the path back to the beginning now. 

The total distance is just below 3KM. </desc>
</wpt>
, <wpt lat="57.17787" lon="23.22156">
  <name>Vecupes taka</name>
  <desc>A short path that leads to the beach, where you will find picnic tables, a toilet. A scenic place where you can enjoy a peaceful time near the sea.</desc>
</wpt>
, <wpt lat="57.35642" lon="22.15384">
  <name>Vasenieku purva taka</name>
  <desc>The 4km trail made of wooden planks gives wonderful views of the Vasenieki mire. There is a picnic place in the beginnng and a birdwatching tower along the way.</desc>
</wpt>
, <wpt lat="56.99007" lon="23.31532">
  <name>Valguma dabas gleznu taka</name>
  <desc>This three kilometer walk brings you through a foresty area near the Valguma lake and the Slocene river. Starts inside a hotel complex, but access is free.</desc>
</wpt>
, <wpt lat="56.98946" lon="23.31575">
  <name>Valguma baskāju taka</name>
  <desc>The Baskāju trail (literally, the barefoot trail) is a special obstacle course, if you will, for walking barefoot. A fun experience and you even get to walk in white mud and through a river. The lenght is 2km and it costs 4EUR per person.</desc>
</wpt>
, <wpt lat="57.54041" lon="26.70534">
  <name>Vaidavas dabas taka</name>
  <desc>The information boards along the Vaidava river will teach you about the valleys nature and history, as well as boating possibilities in the Vaidava river. The main objects of interest are located in the beginning of the route, the Ragana cliffs, the Raganina spring, the Acu spring. There are picnic places, a shelter, swings and a toilet.</desc>
</wpt>
, <wpt lat="57.247411" lon="21.41336">
  <name>Užavas grīvas taka</name>
  <desc>The trail starts at the Uzava river creek, there is a parking place and a camping spot with benches and a table for a picnic. You can build tents here as well. The Uzava river is one of the few places where you can observe unregulated river flow into the sea.</desc>
</wpt>
, <wpt lat="57.209725" lon="21.415662">
  <name>Užavas bāka</name>
  <desc>A resting spot near the Uzava lighthouse</desc>
</wpt>
, <wpt lat="56.3794742244" lon="23.2094711065">
  <name>Ukru gāršas piknika vietas</name>
  <desc>A table, fire pit, an open space for tents. Neaby there is a nature trail. The Ukru forest is a protected area due to the old oaks it&#039;s unmaintained nature.</desc>
</wpt>
, <wpt lat="56.3798781727" lon="23.2103455067">
  <name>Ukru gārša</name>
  <desc>The Ukru gārša is a proteted are more than 1135 hectares large, near Bukaiši and Ukri. A trail has been created to allow visitors to this site. The shortest route is 1550 meters. At the start of the trail, there is a spaceous picnic area with a picnic shelter, firepit, benches and plenty of space for tents. The trail starts across the road from the picnic area, parallel to the ditch. 

<em>Warning: It has come to our attention, that this trail will cease to be maintained and eventually only the derelict picnic spot will remain here.</em></desc>
</wpt>
, <wpt lat="57.21099" lon="22.216038">
  <name>Ūdru kalna skatu tornis</name>
  <desc>This is a 26.5m high tower with views to the Usma lake and it&#039;s islands. There is a short path that leads to the tower.</desc>
</wpt>
, <wpt lat="57.281746" lon="27.085094">
  <name>Ūdenstūristu nakšņošanas vieta pie Pededzes</name>
  <desc>A resting place near the Pededze river, made by river tourists, but accessible by road. There is a fire place, firewood. The access to the river is very steep, lowering a boat would be difficult.</desc>
</wpt>
, <wpt lat="56.64875" lon="26.45573">
  <name>Tolkāja tornis</name>
  <desc>The Teici nature reserve is the highest level of protective area. This tower is one of the few places where you are allowed to see it. A good place for birdwatching.</desc>
</wpt>
, <wpt lat="56.717542" lon="26.946231">
  <name>Tīrumnieku purva taka</name>
  <desc>A short, but beautiful trail that runs in a circular path, along a small swamp lake.</desc>
</wpt>
, <wpt lat="56.6311" lon="26.18959">
  <name>Timsmales baltezers</name>
  <desc>Several nice picnic places near the Timsmales lake. Popular amongst the locals, so free spots could become available only in late hours. The lake is one of Latvias clearest lakes, made into a protected area due to abundance of the rare floating bur-reeds (also known as narrowleaf bur-reed)</desc>
</wpt>
, <wpt lat="56.48766" lon="23.37283">
  <name>Tērvetes dabas parks</name>
  <desc>A big territory with many activities, there is an information centre, several cafes, many playgrounds for children and all kinds of beautiful wooden carvings. Recommended for families with younger children</desc>
</wpt>
, <wpt lat="56.255963" lon="25.552021">
  <name>Tālivalža grava</name>
  <desc>A trail with activity elements, a picnic place and a covered table. The trail is made by locals with help from foreign exchange students. The trail is quite old, so many elements have grown back into the forest which they were made from.</desc>
</wpt>
, <wpt lat="56.6921" lon="23.63171">
  <name>Svētes piknika vieta</name>
  <desc>Picnic tables and a fire place near the Svete river</desc>
</wpt>
, <wpt lat="57.628508" lon="25.712355">
  <name>Strenču pilsētas taka</name>
  <desc>Several walking routes 1-5.5km in length, there are picnic spots, a beautiful forest and of course the Gauja river</desc>
</wpt>
, <wpt lat="57.0389982" lon="27.5578813">
  <name>Stiglovas grava</name>
  <desc>This route will mostly appeal to those who appreciate unspoiled woods and grown in trails. The infrastructure is mostly gone and there are many bushes and weeds that you will have to overcome to follow this dark and shadowy trail. The Stiglova ravine is a good place to see the white and brown devon sandstone slopes and outcrops.</desc>
</wpt>
, <wpt lat="56.80233" lon="24.63524">
  <name>Špakovska parks</name>
  <desc>The dendrologic park Lazdukalni, also known as the Spakovsky park contains more than 7000 plants, 412 species of trees and other garden varieties. There is a pond, a viewing platform and plenty of space to sit down and have a picnic.</desc>
</wpt>
, <wpt lat="56.854922" lon="22.749994">
  <name>Smiltiņkalns</name>
  <desc>This is the highest point in the Eastern Kurland area, where you can ascend to a viewing  platform. There is a covered picnic table, benches and a fire place.</desc>
</wpt>
, <wpt lat="56.957612319" lon="23.547032475">
  <name>Slokas ezera putnu tornis</name>
  <desc>An easily accessible birdwatching tower, located right on the Sloka lake. The tower is small, but provides a good view of the area. An old walking trail is nearby.</desc>
</wpt>
, <wpt lat="56.95731" lon="23.54637">
  <name>Slokas ezera dabas taka</name>
  <desc><p>The trail starts at the Sloka lake birdwatching tower. The trail is pretty wet most of the year, so good boots required. At the end of the trail you will find a few wooden excercise installations for children.</p></desc>
</wpt>
, <wpt lat="57.6287644" lon="22.2891495">
  <name>Šlīteres dabas taka</name>
  <desc>This trail starts at the Slitere lighhouse, which, curiously, is not located anywhere near the sea. The place is located inside the Slitere Nature Reserve, the highest protection status.</desc>
</wpt>
, <wpt lat="57.8632307" lon="25.0260725">
  <name>Skaņākalna taka</name>
  <desc>A most wonderful trail along the Salaca river. You will see cliffs, caves, streams and forests. The trail is decorated with wooden carvings, children playgrounds and picnic spots. Since this is a maintained park, entry costs 1.5EUR per person or 5 EUR per car, but better leave the car at the ticket booth and walk along the small trail - the road is very boring.</desc>
</wpt>
, <wpt lat="57.1706" lon="24.8623">
  <name>Sigulda Līgatne</name>
  <desc>a 20.5km long one way route from Sigulda to the Ligatne nature trail complex. The route is marked with blue rhombs.</desc>
</wpt>
, <wpt lat="57.43068" lon="25.38287">
  <name>Sietiņiezis un taka</name>
  <desc>The Sietiņiezis cliff is made of white sandstone, the biggest in Latvia. You will find a picnic area and a few short walking paths in the area. Wonderful views of the Gauja river.</desc>
</wpt>
, <wpt lat="57.268033" lon="26.553522">
  <name>Sēravots pie Gaujas</name>
  <desc>A nice resting place near Gauja river, accessible both from the road and from the river. There is a small stream with fresh water coming from under a rock, suitable for drinking. Table, fire place, plenty of tent space.</desc>
</wpt>
, <wpt lat="56.831173" lon="24.403456">
  <name>Senču svētkalniņa atpūtas vieta</name>
  <desc>Near the Daugmales mound you will see a sign to the Ancestor Holy Mound. A nice place with tables, toilets, fireplaces, right next to river Daugava</desc>
</wpt>
, <wpt lat="57.6831054" lon="25.7603254">
  <name>Sedas purva tornis 2</name>
  <desc>The Seda mire is an interesting area, with it&#039;s soviet style village and surroundings, it is worth a trip. The birdwatching towers are recently built and provide some of the best birdwatching options in the country.</desc>
</wpt>
, <wpt lat="57.71" lon="25.7185">
  <name>Sedas purva tornis</name>
  <desc>The Seda mire is an interesting area, with it&#039;s soviet style village and surroundings, it is worth a trip. The birdwatching towers are recently built and provide some of the best birdwatching options in the country. The game of towers ornithologist competition takes place here. The access to this tower is from the Jerceni village direction.</desc>
</wpt>
, <wpt lat="57.4544" lon="26.34319">
  <name>Tilderu dabas taka</name>
  <desc>A short nature trail near the river Gauja. Has a few dolomite outcrops on the way. At the end of the trail, there are long stairs that lead down to the river, but there is no resting place.</desc>
</wpt>
, <wpt lat="59.01043" lon="27.49319">
  <name>Karjamaa lõkkekoht</name>
  <desc>RMK camp site</desc>
</wpt>
, <wpt lat="59.48457" lon="26.7861">
  <name>Kalvi lõkkekoht</name>
  <desc>RMK camp site</desc>
</wpt>
, <wpt lat="58.47412" lon="22.11551">
  <name>Kalasma lõkkekoht</name>
  <desc>RMK camp site</desc>
</wpt>
, <wpt lat="59.19959" lon="25.50937">
  <name>Kalajärve lõkkekoht</name>
  <desc>RMK camp site</desc>
</wpt>
, <wpt lat="59.50688" lon="25.26758">
  <name>Kaberneeme lõkkekohad</name>
  <desc>RMK camp site</desc>
</wpt>
, <wpt lat="58.63028" lon="25.29199">
  <name>Kabelimäe lõkkekoht</name>
  <desc>RMK camp site</desc>
</wpt>
, <wpt lat="59.15372" lon="27.38772">
  <name>Jõuga järvede lõkkekoht</name>
  <desc>RMK camp site</desc>
</wpt>
, <wpt lat="59.10768" lon="27.30705">
  <name>Iisaku mäe lõkkekoht</name>
  <desc>RMK camp site</desc>
</wpt>
, <wpt lat="59.00601" lon="22.71244">
  <name>Autobaasi lõkkekoht</name>
  <desc>RMK camp site</desc>
</wpt>
, <wpt lat="59.4526001" lon="26.8719299">
  <name>Aseri lõkkekoht (RMK)</name>
  <desc>RMK camp site</desc>
</wpt>
, <wpt lat="59.4034687" lon="27.5360073">
  <name>Aluoja lõkkekoht</name>
  <desc>RMK camp site</desc>
</wpt>
, <wpt lat="58.46595" lon="22.11752">
  <name>Karjääri lõkkekohad telkimisega</name>
  <desc>RMK camp site</desc>
</wpt>
, <wpt lat="59.425061" lon="24.3432697">
  <name>Vääna-Jõesuu telkimisala</name>
  <desc>RMK camp site</desc>
</wpt>
, <wpt lat="59.34042" lon="25.69325">
  <name>Venemäe telkimisala (RMK)</name>
  <desc>RMK camp site</desc>
</wpt>
, <wpt lat="59.0416787" lon="24.5080047">
  <name>Varbola linnuse telkimisala</name>
  <desc>RMK camp site</desc>
</wpt>
, <wpt lat="59.00062" lon="27.30297">
  <name>Uusküla telkimisala</name>
  <desc>RMK camp site</desc>
</wpt>
, <wpt lat="59.03904" lon="22.68781">
  <name>Tõrvanina telkimisala</name>
  <desc>RMK camp site</desc>
</wpt>
, <wpt lat="59.51707" lon="25.51333">
  <name>Tsitre telkimisala</name>
  <desc>RMK camp site</desc>
</wpt>
, <wpt lat="58.96882" lon="27.12338">
  <name>Raadna telkimisala</name>
  <desc>RMK camp site</desc>
</wpt>
, <wpt lat="59.6673538" lon="25.6995714">
  <name>Purekkari telkimisala (RMK)</name>
  <desc>RMK camp site</desc>
</wpt>
, <wpt lat="59.39959" lon="25.68659">
  <name>Paukjärve telkimisala</name>
  <desc>RMK camp site</desc>
</wpt>
, <wpt lat="59.28502" lon="23.40214">
  <name>Osmussaare puhkekohad</name>
  <desc>RMK camp site</desc>
</wpt>
, <wpt lat="59.5625457" lon="26.0965449">
  <name>Oandu telkimisala</name>
  <desc>RMK camp site</desc>
</wpt>
, <wpt lat="58.99117" lon="22.43886">
  <name>Ninaotsa telkimisala</name>
  <desc>RMK camp site</desc>
</wpt>
, <wpt lat="59.271079" lon="25.6289181">
  <name>Nikerjärve telkimisala</name>
  <desc>RMK camp site</desc>
</wpt>
, <wpt lat="58.93468" lon="22.22081">
  <name>Mägipa telkimisala</name>
  <desc>RMK camp site</desc>
</wpt>
, <wpt lat="59.39982" lon="24.25456">
  <name>Meremõisa telkimisala</name>
  <desc>RMK camp site</desc>
</wpt>
, <wpt lat="59.06115" lon="25.5129">
  <name>Matsimäe Pühajärve telkimisala</name>
  <desc>RMK camp site</desc>
</wpt>
, <wpt lat="58.93212" lon="22.3871">
  <name>Luidja telkimisala</name>
  <desc>RMK camp site</desc>
</wpt>
, <wpt lat="59.36455" lon="25.66091">
  <name>Kulli lõkkekoht telkimisega</name>
  <desc>RMK camp site</desc>
</wpt>
, <wpt lat="59.23143" lon="27.58494">
  <name>Konsu järve telkimisala</name>
  <desc>RMK camp site</desc>
</wpt>
, <wpt lat="58.9861501" lon="27.2022001">
  <name>Kauksi telkimisala (RMK)</name>
  <desc>RMK camp site</desc>
</wpt>
, <wpt lat="58.9892101" lon="27.2237699">
  <name>Kauksi rannametsa telkimisala (RMK)</name>
  <desc>RMK camp site</desc>
</wpt>
, <wpt lat="58.90767" lon="22.13327">
  <name>RMK Kaleste telkimisala</name>
  <desc>RMK camp site</desc>
</wpt>
, <wpt lat="59.4282689" lon="25.6817891">
  <name>Järvi Pikkjärve telkimisala</name>
  <desc>RMK camp site</desc>
</wpt>
, <wpt lat="59.64732" lon="25.50846">
  <name>Juminda telkimisala</name>
  <desc>RMK camp site</desc>
</wpt>
, <wpt lat="58.94115" lon="22.13164">
  <name>RMK Hirmuste telkimisala</name>
  <desc>RMK camp site</desc>
</wpt>
, <wpt lat="58.40811" lon="22.18775">
  <name>Dejevo punker ja telkimisala</name>
  <desc>RMK camp site</desc>
</wpt>
, <wpt lat="58.1534177" lon="27.0572145">
  <name>Valgesoo lõkkekoht</name>
  <desc>RMK camp site</desc>
</wpt>
, <wpt lat="59.4853518" lon="25.6699712">
  <name>Kalmeoja lõkkekoht</name>
  <desc>RMK camp site</desc>
</wpt>
, <wpt lat="58.6447078" lon="26.8491337">
  <name>RMK Kukeseene lõkkekoht</name>
  <desc>RMK camp site</desc>
</wpt>
, <wpt lat="59.3976333" lon="25.6261389">
  <name>Oru lõkkekoht</name>
  <desc>RMK camp site</desc>
</wpt>
, <wpt lat="57.93463" lon="27.343807">
  <name>Nohipalu Mustjärve RMK</name>
  <desc>RMK camp site</desc>
</wpt>
, <wpt lat="59.2600857" lon="25.4913925">
  <name>Krani lõkkekoht</name>
  <desc>RMK camp site</desc>
</wpt>
, <wpt lat="59.1886688" lon="25.5102394">
  <name>Noku lõkkekoht</name>
  <desc>RMK camp site</desc>
</wpt>
, <wpt lat="58.6343776" lon="25.2854007">
  <name>RMK Saeveski metsaonn</name>
  <desc>RMK camp site</desc>
</wpt>
, <wpt lat="58.094998" lon="24.6736075">
  <name>RMK Laiksaare metsaonn</name>
  <desc>RMK camp site</desc>
</wpt>
, <wpt lat="58.4643577" lon="25.2050221">
  <name>RMK Oksa küün-metsaonn</name>
  <desc>RMK camp site</desc>
</wpt>
, <wpt lat="58.4630038" lon="25.1929682">
  <name>RMK Oksa ait-metsaonn</name>
  <desc>RMK camp site</desc>
</wpt>
, <wpt lat="58.224768" lon="25.0115115">
  <name>RMK Kopra tare metsaonn</name>
  <desc>RMK camp site</desc>
</wpt>
, <wpt lat="58.53049" lon="25.2717694">
  <name>Hüpassaare lõkkekoht</name>
  <desc>RMK camp site</desc>
</wpt>
, <wpt lat="58.8061684" lon="24.9821162">
  <name>RMK Tillniidu lõkkekoht</name>
  <desc>RMK camp site</desc>
</wpt>
, <wpt lat="58.6938846" lon="25.2168829">
  <name>RMK Kellissaare lõkkekoht</name>
  <desc>RMK camp site</desc>
</wpt>
, <wpt lat="58.8614474" lon="26.2065075">
  <name>Endla järve puhkemaja</name>
  <desc>RMK camp site</desc>
</wpt>
, <wpt lat="58.5925402" lon="22.5022024">
  <name>RMK Campsite Tuhkana</name>
  <desc>RMK camp site</desc>
</wpt>
, <wpt lat="57.7192476" lon="26.4999599">
  <name>Veski lõkkekoht</name>
  <desc>RMK camp site</desc>
</wpt>
, <wpt lat="59.2483211" lon="23.7458224">
  <name>Keibu lõkkekoht I</name>
  <desc>RMK camp site</desc>
</wpt>
, <wpt lat="59.2120743" lon="23.607954">
  <name>Allikajärve lõkkekoht</name>
  <desc>RMK camp site</desc>
</wpt>
, <wpt lat="59.2309327" lon="23.72333">
  <name>Lepaaugu lõkkekoht</name>
  <desc>RMK camp site</desc>
</wpt>
, <wpt lat="58.1420903" lon="27.0295581">
  <name>Sõnajala lõkkekoht</name>
  <desc>RMK camp site</desc>
</wpt>
, <wpt lat="58.7372842" lon="24.9945057">
  <name>Mukri lõkkekoht</name>
  <desc>RMK camp site</desc>
</wpt>
, <wpt lat="58.6486055" lon="26.8430708">
  <name>RMK Tammeluha lõkkeplats</name>
  <desc>RMK camp site</desc>
</wpt>
, <wpt lat="58.6478402" lon="26.8448217">
  <name>RMK Kalamehe lõkkekoht</name>
  <desc>RMK camp site</desc>
</wpt>
, <wpt lat="57.6405938" lon="26.8878556">
  <name>Luhasoo lõkkekoht</name>
  <desc>RMK camp site</desc>
</wpt>
, <wpt lat="59.2390937" lon="25.2949964">
  <name>Alavere lõkkekoht</name>
  <desc>RMK camp site</desc>
</wpt>
, <wpt lat="57.8223171" lon="26.9730898">
  <name>Kublitsa lõkkekoht</name>
  <desc>RMK camp site</desc>
</wpt>
, <wpt lat="57.9491875" lon="25.6198015">
  <name>RMK Tündre Suurekivi lõkkekoht</name>
  <desc>RMK camp site</desc>
</wpt>
, <wpt lat="57.6286815" lon="26.3099029">
  <name>osm-id 2359066130</name>
  <desc>RMK camp site</desc>
</wpt>
, <wpt lat="57.5973273" lon="26.3293542">
  <name>osm-id 2359066118</name>
  <desc>RMK camp site</desc>
</wpt>
, <wpt lat="57.6215508" lon="26.25685">
  <name>Kõrgeperve</name>
  <desc>RMK camp site. Has a fireplace and an oven, firewood storage, table. A very picturesque place near the river. Access from the river is possible.</desc>
</wpt>
, <wpt lat="57.9471309" lon="27.6342486">
  <name>Värska lõkkekoht</name>
  <desc>RMK camp site</desc>
</wpt>
, <wpt lat="58.8874694" lon="26.0483742">
  <name>Oostriku jõe lõkkekoht</name>
  <desc>RMK camp site</desc>
</wpt>
, <wpt lat="59.5062939" lon="25.2638549">
  <name>Kaberneeme lõkkekohad</name>
  <desc>RMK camp site</desc>
</wpt>
, <wpt lat="57.948716" lon="25.628207">
  <name>RMK Tündre järve lõkkekoht</name>
  <desc>RMK camp site</desc>
</wpt>
, <wpt lat="58.9826586" lon="22.9382701">
  <name>Säärenina lõkkekoht</name>
  <desc>RMK camp site</desc>
</wpt>
, <wpt lat="58.842989" lon="23.06193">
  <name>Sarve telkimisala</name>
  <desc>RMK camp site</desc>
</wpt>
, <wpt lat="58.1210957" lon="24.7690741">
  <name>Rae järve telkimisala</name>
  <desc>RMK camp site</desc>
</wpt>
, <wpt lat="57.7176296" lon="26.4927607">
  <name>RMK Alakonnu lõkkekoht</name>
  <desc>RMK camp site</desc>
</wpt>
, <wpt lat="59.4257265" lon="25.6731391">
  <name>Järvi Pärnjärve telkimisala</name>
  <desc>RMK camp site</desc>
</wpt>
, <wpt lat="59.3723978" lon="24.1205939">
  <name>Leetse lõkkekoht</name>
  <desc>RMK camp site</desc>
</wpt>
, <wpt lat="59.5142047" lon="25.3801973">
  <name>Pedassaare metsamaja</name>
  <desc>RMK camp site</desc>
</wpt>
, <wpt lat="59.03465" lon="27.29065">
  <name>Võhma lõkkekoht</name>
  <desc>RMK camp site</desc>
</wpt>
, <wpt lat="58.4227653" lon="22.0746871">
  <name>Veere lõkkekohad</name>
  <desc>RMK camp site</desc>
</wpt>
, <wpt lat="58.8849183" lon="22.4350439">
  <name>Vanajõeoru lõkkekoht</name>
  <desc>RMK camp site</desc>
</wpt>
, <wpt lat="59.3585421" lon="26.7821997">
  <name>Uljaste lõkkekoht</name>
  <desc>RMK camp site</desc>
</wpt>
, <wpt lat="59.0395501" lon="22.6864899">
  <name>Tõrvanina lõkkekoht (RMK)</name>
  <desc>RMK camp site</desc>
</wpt>
, <wpt lat="58.63098" lon="25.38481">
  <name>Tõrvaaugu puhkekoht</name>
  <desc>RMK camp site</desc>
</wpt>
, <wpt lat="58.59695" lon="22.69433">
  <name>Triigi lõkkekoht</name>
  <desc>RMK camp site</desc>
</wpt>
, <wpt lat="58.97126" lon="22.7099">
  <name>Säärenina lõkkekoht</name>
  <desc>RMK camp site</desc>
</wpt>
, <wpt lat="58.5984914" lon="22.607563">
  <name>Soela lõkkekohad (RMK)</name>
  <desc>RMK camp site</desc>
</wpt>
, <wpt lat="59.1710323" lon="27.2966669">
  <name>Selisoo lõkkekoht</name>
  <desc>RMK camp site</desc>
</wpt>
, <wpt lat="58.98762" lon="27.17526">
  <name>Rannapungerja lõkkekoht</name>
  <desc>RMK camp site</desc>
</wpt>
, <wpt lat="59.17827" lon="27.8214">
  <name>Puhatu lõkkekohad</name>
  <desc>RMK camp site</desc>
</wpt>
, <wpt lat="59.51215" lon="25.37357">
  <name>Pedassaare lõkkekoht</name>
  <desc>RMK camp site</desc>
</wpt>
, <wpt lat="59.14491" lon="25.29034">
  <name>Paunküla lõkkekoht</name>
  <desc>RMK camp site</desc>
</wpt>
, <wpt lat="59.5041716" lon="25.7882074">
  <name>Nõmmeveski lõkkekoht</name>
  <desc>RMK camp site</desc>
</wpt>
, <wpt lat="59.2222473" lon="25.5790282">
  <name>Mägede lõkkekohad</name>
  <desc>RMK camp site</desc>
</wpt>
, <wpt lat="59.5825" lon="26.17508">
  <name>Mustoja lõkkekoht</name>
  <desc>RMK camp site</desc>
</wpt>
, <wpt lat="58.64893" lon="25.33432">
  <name>Metsavenna lõkkekoht</name>
  <desc>RMK camp site</desc>
</wpt>
, <wpt lat="58.5948801" lon="22.6106099">
  <name>Meiuste lõkkekoht (RMK)</name>
  <desc>RMK camp site</desc>
</wpt>
, <wpt lat="59.07039" lon="25.50735">
  <name>Matsimäe karjääri lõkkekoht</name>
  <desc>RMK camp site</desc>
</wpt>
, <wpt lat="59.36376" lon="24.15084">
  <name>Leetse lõkkekoht</name>
  <desc>RMK camp site</desc>
</wpt>
, <wpt lat="58.87258" lon="22.46795">
  <name>Leemeti lõkkekoht</name>
  <desc>RMK camp site</desc>
</wpt>
, <wpt lat="59.3842396" lon="27.755915">
  <name>Langevoja lõkkekoht</name>
  <desc>RMK camp site</desc>
</wpt>
, <wpt lat="58.89533" lon="22.54933">
  <name>Laasimetsa lõkkekoht</name>
  <desc>RMK camp site</desc>
</wpt>
, <wpt lat="59.13215" lon="25.7811">
  <name>Kurisoo lõkkekoht</name>
  <desc>RMK camp site</desc>
</wpt>
, <wpt lat="58.43677" lon="22.24797">
  <name>Konati lõkkekoht telkimisega</name>
  <desc>RMK camp site</desc>
</wpt>
, <wpt lat="58.36647" lon="22.21287">
  <name>Karujärve lõkkekoht</name>
  <desc>RMK camp site</desc>
</wpt>
, <wpt lat="59.0674398" lon="27.245925">
  <name>Kõrtsikraavi lõkkekoht</name>
  <desc>RMK camp site</desc>
</wpt>
, <wpt lat="58.7213994" lon="23.7489887">
  <name>Suitsu puhkekoht</name>
  <desc>RMK camp site</desc>
</wpt>
, <wpt lat="58.0170373" lon="26.443387">
  <name>Kooliranna lõkkekoht</name>
  <desc>RMK camp site</desc>
</wpt>
, <wpt lat="58.0306891" lon="26.449501">
  <name>Angunina lõkkekoht</name>
  <desc>RMK camp site</desc>
</wpt>
, <wpt lat="58.0298647" lon="26.472337">
  <name>Kiigemäe lõkkekoht</name>
  <desc>RMK camp site</desc>
</wpt>
, <wpt lat="58.1214928" lon="24.7681562">
  <name>Rae järve telkimisala</name>
  <desc>RMK camp site</desc>
</wpt>
, <wpt lat="58.1214181" lon="24.7681593">
  <name>Noku lõkkekoht</name>
  <desc>RMK camp site</desc>
</wpt>
, <wpt lat="59.1884157" lon="25.5089224">
  <name>Noku lõkkekoht</name>
  <desc>RMK camp site</desc>
</wpt>
, <wpt lat="59.1883433" lon="25.5089255">
  <name>Noku lõkkekoht</name>
  <desc>RMK camp site</desc>
</wpt>
, <wpt lat="59.2212829" lon="23.6029612">
  <name>Peraküla telkimisala</name>
  <desc>RMK camp site</desc>
</wpt>
, <wpt lat="59.2588864" lon="23.8725348">
  <name>Vihterpalu lõkkekoht</name>
  <desc>RMK camp site</desc>
</wpt>
, <wpt lat="59.2133901" lon="23.5745754">
  <name>Uuejõe sauna lõkkekoht</name>
  <desc>RMK camp site</desc>
</wpt>
, <wpt lat="59.2110208" lon="23.5759655">
  <name>Uuejõe lõkkekoht</name>
  <desc>RMK camp site</desc>
</wpt>
, <wpt lat="59.1796493" lon="23.7661778">
  <name>Veskijärve lõkkekoht</name>
  <desc>RMK camp site</desc>
</wpt>
, <wpt lat="59.1838296" lon="23.8308169">
  <name>Tänavjärve lõkkekoht</name>
  <desc>RMK camp site</desc>
</wpt>
, <wpt lat="59.0960829" lon="24.1519562">
  <name>Järveotsa puhkekoht</name>
  <desc>RMK camp site</desc>
</wpt>
, <wpt lat="59.2545648" lon="24.929046">
  <name>Saarte raba lõkkekoht</name>
  <desc>RMK camp site</desc>
</wpt>
, <wpt lat="59.2200221" lon="25.0291897">
  <name>Saula lõkkekoht</name>
  <desc>RMK camp site</desc>
</wpt>
, <wpt lat="59.2559555" lon="24.6460567">
  <name>Metsanurme lõkkekoht II</name>
  <desc>RMK camp site</desc>
</wpt>
, <wpt lat="59.2706383" lon="24.378445">
  <name>Ohtu lõkkekoht</name>
  <desc>RMK camp site</desc>
</wpt>
, <wpt lat="59.2188597" lon="24.1428931">
  <name>Padise lõkkekoht</name>
  <desc>RMK camp site</desc>
</wpt>
, <wpt lat="59.2591031" lon="23.8722764">
  <name>Vihterpalu lõkkekoht</name>
  <desc>RMK camp site</desc>
</wpt>
, <wpt lat="59.244309" lon="23.7457605">
  <name>Keibu lõkkekoht II</name>
  <desc>RMK camp site</desc>
</wpt>
, <wpt lat="58.4514183" lon="22.1140718">
  <name>Abula lõkkekoht telkimisalaga</name>
  <desc>RMK camp site</desc>
</wpt>
, <wpt lat="59.3975284" lon="25.6843977">
  <name>Paukjärve telkimisala</name>
  <desc>RMK camp site</desc>
</wpt>
, <wpt lat="59.3965916" lon="25.6847892">
  <name>Paukjärve telkimisala</name>
  <desc>RMK camp site</desc>
</wpt>
, <wpt lat="57.7869996" lon="27.1467308">
  <name>Kütioru lõkkekoht</name>
  <desc>RMK camp site</desc>
</wpt>
, <wpt lat="59.3768238" lon="25.7226662">
  <name>Jussi telkimisala</name>
  <desc>RMK camp site</desc>
</wpt>
, <wpt lat="59.5679959" lon="25.9733226">
  <name>Võsu telkimisala</name>
  <desc>RMK camp site</desc>
</wpt>
, <wpt lat="57.7115242" lon="26.5024557">
  <name>Ähijärve lõkkekoht</name>
  <desc>RMK camp site</desc>
</wpt>
, <wpt lat="57.5971664" lon="26.3290423">
  <name>Tellingumäe lõkkekoht</name>
  <desc>RMK camp site</desc>
</wpt>
, <wpt lat="57.5988365" lon="26.3330829">
  <name>Rattaradade lõkkekoht</name>
  <desc>RMK camp site</desc>
</wpt>
, <wpt lat="57.6430851" lon="26.3805376">
  <name>Linnajärve lõkkekoht</name>
  <desc>RMK camp site</desc>
</wpt>
, <wpt lat="57.5096537" lon="26.6165692">
  <name>Valgjärve lõkkekoht</name>
  <desc>RMK camp site</desc>
</wpt>
, <wpt lat="57.5853016" lon="26.8342497">
  <name>Paganamaa lõkkekoht</name>
  <desc>RMK camp site</desc>
</wpt>
, <wpt lat="57.5719696" lon="26.664079">
  <name>Metsavenna lõkkekoht</name>
  <desc>RMK camp site</desc>
</wpt>
, <wpt lat="57.7333115" lon="26.9714952">
  <name>Saunamaa lõkkekoht</name>
  <desc>RMK camp site</desc>
</wpt>
, <wpt lat="57.6304541" lon="26.7659017">
  <name>Pähni metsaonn</name>
  <desc>RMK camp site</desc>
</wpt>
, <wpt lat="57.7162827" lon="27.0831503">
  <name>Vaskna järve lõkkekoht</name>
  <desc>RMK camp site</desc>
</wpt>
, <wpt lat="57.745735" lon="27.1053645">
  <name>Kavadi järve lõkkekoht</name>
  <desc>RMK camp site</desc>
</wpt>
, <wpt lat="57.7130461" lon="27.0507402">
  <name>Haanja lõkkekoht</name>
  <desc>RMK camp site</desc>
</wpt>
, <wpt lat="57.9431304" lon="27.3473009">
  <name>Valgjärve lõkkekoht</name>
  <desc>RMK camp site</desc>
</wpt>
, <wpt lat="57.8395614" lon="27.4635427">
  <name>Piusa lõkkekoht</name>
  <desc>RMK camp site</desc>
</wpt>
, <wpt lat="57.8463988" lon="27.6394048">
  <name>Lõunalaagri lõkkekoht</name>
  <desc>RMK camp site</desc>
</wpt>
, <wpt lat="57.7973326" lon="27.3611901">
  <name>Härma lõkkekoht</name>
  <desc>RMK camp site</desc>
</wpt>
, <wpt lat="58.0286794" lon="27.0766341">
  <name>Peri lõkkekoht</name>
  <desc>RMK camp site</desc>
</wpt>
, <wpt lat="57.9121361" lon="27.1903292">
  <name>Paidra lõkkekoht</name>
  <desc>RMK camp site</desc>
</wpt>
, <wpt lat="57.9327889" lon="27.173688">
  <name>Leevi lõkkekoht</name>
  <desc>RMK camp site</desc>
</wpt>
, <wpt lat="58.1101664" lon="27.0674708">
  <name>Otteni lõkkekoht</name>
  <desc>RMK camp site</desc>
</wpt>
, <wpt lat="58.6528915" lon="26.8429678">
  <name>Jõemõisa lõkkekoht</name>
  <desc>RMK camp site</desc>
</wpt>
, <wpt lat="58.242079" lon="27.0589705">
  <name>Ahja lõkkekoht</name>
  <desc>RMK camp site</desc>
</wpt>
, <wpt lat="58.4437124" lon="27.0858599">
  <name>Tähemaa lõkkekoht</name>
  <desc>RMK camp site</desc>
</wpt>
, <wpt lat="58.5663125" lon="26.9226809">
  <name>Kukemetsa metsaonn</name>
  <desc>RMK camp site</desc>
</wpt>
, <wpt lat="58.3822353" lon="27.1043472">
  <name>Kantsi lõkkekoht</name>
  <desc>RMK camp site</desc>
</wpt>
, <wpt lat="58.5724502" lon="26.6922543">
  <name>Elistvere lõkkekoht</name>
  <desc>RMK camp site</desc>
</wpt>
, <wpt lat="59.2619186" lon="24.6376106">
  <name>Metsanurme lõkkekoht I</name>
  <desc>RMK camp site</desc>
</wpt>
, <wpt lat="58.7879265" lon="26.1779231">
  <name>RMK Hundissaare lõkkekoht</name>
  <desc>RMK camp site</desc>
</wpt>
, <wpt lat="59.0817891" lon="27.2630023">
  <name>Seljandiku metsaonn</name>
  <desc>RMK camp site</desc>
</wpt>
, <wpt lat="59.0593387" lon="27.2550568">
  <name>Rüütli lõkkekoht</name>
  <desc>RMK camp site</desc>
</wpt>
, <wpt lat="57.412148044" lon="25.400748134">
  <name>Grīviņi</name>
  <desc>A boat tourist rest place at Gauja river, but accessible by car. Three separated picnic places with fire pits and tables, there is a toilet. A wide and beautiful place for many tents, in a beautiful location.</desc>
</wpt>
, <wpt lat="57.7219" lon="22.57759">
  <name>Zēņdīķa atpūtas vietas</name>
  <desc>A pleasant area around an artificial pond, several picnic places with tables, benches and fire pits. Simple parking, a nice boardwalk around the area.</desc>
</wpt>
, <wpt lat="56.260417" lon="25.532528">
  <name>Ormaņkalna tornis</name>
  <desc>A newly built watchtower in Ormankalns hill. The place is hard to see from the road, so follow our map.</desc>
</wpt>
, <wpt lat="56.48665" lon="22.10143">
  <name>Atpūtas vieta Nīgrande</name>
  <desc>Newly built resting place for boaters at the Venta river in Nigrande, near the bridge. Quite open and public, but car has to be parked a little away. Perfect for cyclists and boat travelers.</desc>
</wpt>
, <wpt lat="56.96515" lon="23.46959">
  <name>Sēra dīķu taka</name>
  <desc>A pleasant duckboard trail in the Witch bog will lead you in a 2.5km (total) walk to the sulfur pools in the middle of the bog. A recently built trail with a parking space. No other amenities.</desc>
</wpt>
, <wpt lat="55.89548" lon="26.72574">
  <name>Butišķu loks</name>
  <desc>A picnic spot with a table, bench, a toilet and a campfire place.</desc>
</wpt>
, <wpt lat="55.9012586" lon="26.8717525">
  <name>Slutišķu krauja</name>
  <desc></desc>
</wpt>
, <wpt lat="55.9144558" lon="26.8150332">
  <name>Vasargelišķu skatu tornis</name>
  <desc>A beautiful scenic view that was displayed on the 10 LVL banknote. There is a tower and a picnic place.</desc>
</wpt>
, <wpt lat="55.8987684" lon="26.3387851">
  <name>Sudmaļu pilskalns</name>
  <desc>A campfire place, a table with benches.</desc>
</wpt>
, <wpt lat="56.1512638" lon="26.4632655">
  <name>Nīcgales Lielais akmens</name>
  <desc>A shelter, a campfire place and some benches. Located at the Nicgales stone, a geological object of interest.</desc>
</wpt>
, <wpt lat="55.7836651" lon="26.3478448">
  <name>Medumu parks</name>
  <desc>Benches and a grill place.</desc>
</wpt>
, <wpt lat="55.8947032" lon="26.879822">
  <name>Ververu krauja</name>
  <desc>This location includes a campfire place, some benches, a table and a shelter.</desc>
</wpt>
, <wpt lat="57.361307" lon="25.305252">
  <name>Jāņarāmis</name>
  <desc>A very wide and well equipped camping area near the Gauja river. Made for boaters but accessible from the road. Many tables, firewood, recently renovated. All amenities and free of charge. Recommended</desc>
</wpt>
, <wpt lat="56.733285" lon="21.381088">
  <name>Cīravas bebru taka</name>
  <desc>A recently opened trail in the Cirava forest park.</desc>
</wpt>
, <wpt lat="56.6427477" lon="22.3523638">
  <name>Lieknas putnu platforma</name>
  <desc>A birdwatching platform near the Lieknas water reservoirs, a private fish farm. Entrance beyond the lift gate is prohibited, but the view from the platform gives a good overview of the two nearest water bodies and plenty of birds. Herons, swans and even a white tailed eagle can be spotted here. Easy access with a car, nearby house seems abandoned.</desc>
</wpt>
, <wpt lat="54.925234343" lon="23.7077386071">
  <name>Poilsiavietė Apuokynė</name>
  <desc>Lithuanian state forest managed site</desc>
</wpt>
, <wpt lat="54.86278553" lon="24.0441656178">
  <name>Girionių poilsiavietė</name>
  <desc>Lithuanian state forest managed site</desc>
</wpt>
, <wpt lat="54.8904880378" lon="24.0934830729">
  <name>Stovyklavietė Drakonas</name>
  <desc>Lithuanian state forest managed site</desc>
</wpt>
, <wpt lat="54.8371859111" lon="24.0719551633">
  <name>Poilsiavietė Girios Šauksmas</name>
  <desc>Lithuanian state forest managed site</desc>
</wpt>
, <wpt lat="54.8180766364" lon="24.0367355218">
  <name>Poilsiavietė Pušyno aidai</name>
  <desc>Lithuanian state forest managed site</desc>
</wpt>
, <wpt lat="54.8289866945" lon="24.0340317851">
  <name>Poilsiavietė Lepšynė</name>
  <desc>Lithuanian state forest managed site</desc>
</wpt>
, <wpt lat="54.825633375" lon="24.0186171499">
  <name>Poilsiavietė Žalioji auditorija</name>
  <desc>Lithuanian state forest managed site</desc>
</wpt>
, <wpt lat="54.0071206826" lon="24.0033755155">
  <name>Girios Aido pažintinis takas</name>
  <desc>Lithuanian state forest managed site</desc>
</wpt>
, <wpt lat="55.9476491312" lon="24.5101302489">
  <name>Jaunystė</name>
  <desc>Lithuanian state forest managed site</desc>
</wpt>
, <wpt lat="56.0143066857" lon="24.111447859">
  <name>Girelė</name>
  <desc>Lithuanian state forest managed site</desc>
</wpt>
, <wpt lat="56.0060139796" lon="24.4426633742">
  <name>Seklytėlė</name>
  <desc>Lithuanian state forest managed site</desc>
</wpt>
, <wpt lat="56.2077634962" lon="24.1347243496">
  <name>Gedučiai</name>
  <desc>Lithuanian state forest managed site</desc>
</wpt>
, <wpt lat="56.0217967299" lon="24.9083013154">
  <name>Diemedžiai</name>
  <desc>Lithuanian state forest managed site</desc>
</wpt>
, <wpt lat="56.1976600093" lon="24.8898095924">
  <name>Trys kalnelė</name>
  <desc>Lithuanian state forest managed site</desc>
</wpt>
, <wpt lat="56.2665983896" lon="24.7539486725">
  <name>Užušiliai</name>
  <desc>Lithuanian state forest managed site</desc>
</wpt>
, <wpt lat="56.195676408" lon="25.012660507">
  <name>Linksmagirė</name>
  <desc>Lithuanian state forest managed site</desc>
</wpt>
, <wpt lat="56.2498452418" lon="24.9738178103">
  <name>Vidugiris</name>
  <desc>Lithuanian state forest managed site</desc>
</wpt>
, <wpt lat="56.3098138912" lon="24.9137224362">
  <name>Brigiškiai</name>
  <desc>Lithuanian state forest managed site</desc>
</wpt>
, <wpt lat="56.3608520487" lon="24.8637814236">
  <name>Lujėnai</name>
  <desc>Lithuanian state forest managed site</desc>
</wpt>
, <wpt lat="56.1553505067" lon="25.1068911297">
  <name>Baublynė</name>
  <desc>Lithuanian state forest managed site</desc>
</wpt>
, <wpt lat="56.4038163857" lon="24.800024756">
  <name>Pagojai</name>
  <desc>Lithuanian state forest managed site</desc>
</wpt>
, <wpt lat="55.3629747707" lon="24.8986769034">
  <name>Poilsiavietė Dagia</name>
  <desc>Lithuanian state forest managed site</desc>
</wpt>
, <wpt lat="55.6776265827" lon="25.2780212851">
  <name>Poilsiavietė Priegodo 2</name>
  <desc>Lithuanian state forest managed site</desc>
</wpt>