<?xml version="1.0" encoding="UTF-8"?>
<kml xmlns="http://www.opengis.net/kml/2.2">
  <Placemark>
    <name>Akmeņupes dabas taka</name>
    <description>An old and overgrown path, but does have a few new picnic tables. There are no signs, so following the trail in it&#039;s entirety can be hard. We did not find it at one point, so had to turn back.</description>
    <Point>
      <coordinates>26.14555,56.06705,0</coordinates>
    </Point>
  </Placemark>
,   <Placemark>
    <name>Akmeņu taka</name>
    <description></description>
    <Point>
      <coordinates>27.3871489,56.292172,0</coordinates>
    </Point>
  </Placemark>
,   <Placemark>
    <name>Aklā purva taka</name>
    <description>A new duckboard in the Akla (Blind) mire. To arrive by car, you have to take the road from the western side. The road is narrow and can get muddy, so maybe leave the car and walk. There are a few benches along the path, but no tables.</description>
    <Point>
      <coordinates>25.10556,56.51011,0</coordinates>
    </Point>
  </Placemark>
,   <Placemark>
    <name>Aizvīķu meža parks</name>
    <description></description>
    <Point>
      <coordinates>21.722757,56.332363,0</coordinates>
    </Point>
  </Placemark>
,   <Placemark>
    <name>Adamovas taka</name>
    <description>The path is making loops and turns, there are a few bridges and duckboards, nice sloped forests. You can see views of the Daugava river and the Kraslava city.</description>
    <Point>
      <coordinates>27.134514,55.892502,0</coordinates>
    </Point>
  </Placemark>
,   <Placemark>
    <name>Atpūtas vieta pie Kokšu (Zāļu) ezera</name>
    <description></description>
    <Point>
      <coordinates>26.078436,57.668028,0</coordinates>
    </Point>
  </Placemark>
,   <Placemark>
    <name>Atpūtas vieta pie Kokšu (Zāļu) ezera</name>
    <description></description>
    <Point>
      <coordinates>26.081553,57.667707,0</coordinates>
    </Point>
  </Placemark>
,   <Placemark>
    <name>Atpūtas vieta pie Kokšu (Zāļu) ezera</name>
    <description></description>
    <Point>
      <coordinates>26.077176,57.673547,0</coordinates>
    </Point>
  </Placemark>
,   <Placemark>
    <name>Atpūtas vieta pie Klievezera</name>
    <description>A picnic and beach area in the Smiltene city. This is more of a rest stop with swimming opportunity, than a tent place, although there is nothing to stop you from camping here if the other nearby (better) spots are all taken.</description>
    <Point>
      <coordinates>25.908362,57.414209,0</coordinates>
    </Point>
  </Placemark>
,   <Placemark>
    <name>Atpūtas vieta pie Kaupēna ezera</name>
    <description>A picnic place nearby a lake, just beside a road. There are all the necessities, a table with a roof, toilets, fire pit with grill and hooks. Plenty of space for tents too.</description>
    <Point>
      <coordinates>25.674294,57.229103,0</coordinates>
    </Point>
  </Placemark>
,   <Placemark>
    <name>Atpūtas vieta pie Kapu ezera</name>
    <description>A nice lake with a wide and open space to build tents. Possible to swim, have a picnic. The area is close to the nearby settlement, so expect locals having fun and listening to music.</description>
    <Point>
      <coordinates>26.560149,56.806519,0</coordinates>
    </Point>
  </Placemark>
,   <Placemark>
    <name>Atpūtas vieta pie Kaļņa ezera</name>
    <description>A picnic area near the Kalna lake, there is a wooden structure with a table too, to save yourself from rain.</description>
    <Point>
      <coordinates>26.98981,57.090676,0</coordinates>
    </Point>
  </Placemark>
,   <Placemark>
    <name>Atpūtas vieta pie Kaļņa ezera</name>
    <description>A picnic area near a forest lake, with a small sheltered table</description>
    <Point>
      <coordinates>26.975669,57.098195,0</coordinates>
    </Point>
  </Placemark>
,   <Placemark>
    <name>Atpūtas vieta pie Kaļņa ezera</name>
    <description>A resting place near a forest lake, a nice place popular with local people who come here for a swim, or to spend the day.</description>
    <Point>
      <coordinates>26.979161,57.101788,0</coordinates>
    </Point>
  </Placemark>
,   <Placemark>
    <name>Atpūtas vieta pie Jazinka</name>
    <description></description>
    <Point>
      <coordinates>27.124571,56.087259,0</coordinates>
    </Point>
  </Placemark>
,   <Placemark>
    <name>Atpūtas vieta pie Janopoles dīķa</name>
    <description>A pleasant and nicely equipped picnic and tenting place near a small pond. Road is nearby, but does not disturb much. Pleasant and recommended.</description>
    <Point>
      <coordinates>27.398318,56.42794,0</coordinates>
    </Point>
  </Placemark>
,   <Placemark>
    <name>Atpūtas vieta pie Irbes</name>
    <description></description>
    <Point>
      <coordinates>21.8675825,57.5518676,0</coordinates>
    </Point>
  </Placemark>
,   <Placemark>
    <name>Atpūtas vieta pie Ģendertu klints</name>
    <description></description>
    <Point>
      <coordinates>24.996479,57.884702,0</coordinates>
    </Point>
  </Placemark>
,   <Placemark>
    <name>Atpūtas vieta pie Gaujas tilta Strenči</name>
    <description></description>
    <Point>
      <coordinates>25.700281,57.618341,0</coordinates>
    </Point>
  </Placemark>
,   <Placemark>
    <name>Atpūtas vieta pie Gaujas tilta Strenči</name>
    <description></description>
    <Point>
      <coordinates>25.697601,57.618683,0</coordinates>
    </Point>
  </Placemark>
,   <Placemark>
    <name>Atpūtas vieta pie Gaujas (Tirziņas ieteka)</name>
    <description>Picnic and camping place near the river Gauja. There is a sheltered table, fire place, lots of space for tents.</description>
    <Point>
      <coordinates>26.429933,57.392349,0</coordinates>
    </Point>
  </Placemark>
,   <Placemark>
    <name>Atpūtas vieta pie Gaujas</name>
    <description></description>
    <Point>
      <coordinates>25.730339,57.622992,0</coordinates>
    </Point>
  </Placemark>
,   <Placemark>
    <name>Atpūtas vieta pie Gaujas</name>
    <description></description>
    <Point>
      <coordinates>25.708288,57.618072,0</coordinates>
    </Point>
  </Placemark>
,   <Placemark>
    <name>Atpūtas vieta pie Gaujas</name>
    <description></description>
    <Point>
      <coordinates>25.974467,57.656719,0</coordinates>
    </Point>
  </Placemark>
,   <Placemark>
    <name>Atpūtas vieta pie Gaujas</name>
    <description></description>
    <Point>
      <coordinates>25.977151,57.668465,0</coordinates>
    </Point>
  </Placemark>
,   <Placemark>
    <name>Atpūtas vieta pie Gaišezera</name>
    <description></description>
    <Point>
      <coordinates>26.48627,55.94057,0</coordinates>
    </Point>
  </Placemark>
,   <Placemark>
    <name>Atpūtas vieta pie Egļukalna</name>
    <description></description>
    <Point>
      <coordinates>26.33071,55.87359,0</coordinates>
    </Point>
  </Placemark>
,   <Placemark>
    <name>Atpūtas vieta pie Dūņezera</name>
    <description></description>
    <Point>
      <coordinates>22.002346,57.303034,0</coordinates>
    </Point>
  </Placemark>
,   <Placemark>
    <name>Atpūtas vieta Pie dīķa</name>
    <description>A wonderful location in the middle of a forest, near a small artificial pond, suitable for swimming. There are two sheltered picnic tables. A very pleasant place to relax and spend the night in a tent.</description>
    <Point>
      <coordinates>27.612895,57.278775,0</coordinates>
    </Point>
  </Placemark>
,   <Placemark>
    <name>Atpūtas vieta pie Dauģēnu klints</name>
    <description></description>
    <Point>
      <coordinates>25.014788,57.894645,0</coordinates>
    </Point>
  </Placemark>
,   <Placemark>
    <name>Atpūtas vieta pie Daugavas</name>
    <description></description>
    <Point>
      <coordinates>27.12854,55.88766,0</coordinates>
    </Point>
  </Placemark>
,   <Placemark>
    <name>Atpūtas vieta pie Darvas ezera</name>
    <description></description>
    <Point>
      <coordinates>26.229842,57.59547,0</coordinates>
    </Point>
  </Placemark>
,   <Placemark>
    <name>Atpūtas vieta pie Cieceres upes</name>
    <description></description>
    <Point>
      <coordinates>22.08452,56.686943,0</coordinates>
    </Point>
  </Placemark>
,   <Placemark>
    <name>Atpūtas vieta pie Cepurītes ezera</name>
    <description></description>
    <Point>
      <coordinates>26.193441,57.653749,0</coordinates>
    </Point>
  </Placemark>
,   <Placemark>
    <name>Atpūtas vieta pie Carnikavas</name>
    <description></description>
    <Point>
      <coordinates>24.277486,57.133691,0</coordinates>
    </Point>
  </Placemark>
,   <Placemark>
    <name>Atpūtas vieta pie Bekām</name>
    <description></description>
    <Point>
      <coordinates>26.102653,57.703433,0</coordinates>
    </Point>
  </Placemark>
,   <Placemark>
    <name>Atpūtas vieta Pērkules krauja</name>
    <description></description>
    <Point>
      <coordinates>26.744766,55.691979,0</coordinates>
    </Point>
  </Placemark>
,   <Placemark>
    <name>Atpūtas vieta Papes dabas parkā</name>
    <description></description>
    <Point>
      <coordinates>20.984109,56.219528,0</coordinates>
    </Point>
  </Placemark>
,   <Placemark>
    <name>Atpūtas vieta Papes dabas parkā</name>
    <description></description>
    <Point>
      <coordinates>20.993359,56.243341,0</coordinates>
    </Point>
  </Placemark>
,   <Placemark>
    <name>Atpūtas vieta Papes dabas parkā</name>
    <description></description>
    <Point>
      <coordinates>20.997412,56.267235,0</coordinates>
    </Point>
  </Placemark>
,   <Placemark>
    <name>Atpūtas vieta Nikuce</name>
    <description></description>
    <Point>
      <coordinates>25.003408,57.916105,0</coordinates>
    </Point>
  </Placemark>
,   <Placemark>
    <name>Atpūtas vieta Lāčauss</name>
    <description></description>
    <Point>
      <coordinates>26.893682,57.2293,0</coordinates>
    </Point>
  </Placemark>
,   <Placemark>
    <name>Atpūtas vieta Ķēķis</name>
    <description>An old picnic place, nearly falling apart. A few benches and a fire place, located nearby two forest roads, nothing particularly interesting.</description>
    <Point>
      <coordinates>26.861485,56.642008,0</coordinates>
    </Point>
  </Placemark>
,   <Placemark>
    <name>Atpūtas vieta Karogu karjers</name>
    <description>A wonderful place on an island in an artificial lake. There are several picnic spots and a short trail to the Dzelzamurs stone. There are clean toilets provided.</description>
    <Point>
      <coordinates>24.786158,57.826578,0</coordinates>
    </Point>
  </Placemark>
,   <Placemark>
    <name>Atpūtas vieta Kalētu upmalā</name>
    <description></description>
    <Point>
      <coordinates>21.452267,56.309596,0</coordinates>
    </Point>
  </Placemark>
,   <Placemark>
    <name>Atpūtas vieta Irbes ieteka</name>
    <description>Many tent places in this area, where river Irbe enters the sea. There are tables and fire places near each spot. They are not specifically separated, but areas are quite distinct and wide enough for several large groups. Notice that this is a popular finishing place for boaters, so it gets busy.</description>
    <Point>
      <coordinates>22.149445,57.64437,0</coordinates>
    </Point>
  </Placemark>
,   <Placemark>
    <name>Atpūtas vieta Iežuleja</name>
    <description></description>
    <Point>
      <coordinates>25.978786,57.639994,0</coordinates>
    </Point>
  </Placemark>
,   <Placemark>
    <name>Atpūtas vieta Ievlīči</name>
    <description></description>
    <Point>
      <coordinates>25.005049,57.901127,0</coordinates>
    </Point>
  </Placemark>
,   <Placemark>
    <name>Atpūtas vieta Dziļezers</name>
    <description></description>
    <Point>
      <coordinates>24.58051,57.49455,0</coordinates>
    </Point>
  </Placemark>
,   <Placemark>
    <name>Atpūtas vieta Dzelzsāmurs</name>
    <description></description>
    <Point>
      <coordinates>24.785357,57.834641,0</coordinates>
    </Point>
  </Placemark>
,   <Placemark>
    <name>Atpūtas vieta Draudzības pļaviņā</name>
    <description></description>
    <Point>
      <coordinates>25.03399,57.861316,0</coordinates>
    </Point>
  </Placemark>
,   <Placemark>
    <name>Atpūtas vieta Dauģēni</name>
    <description></description>
    <Point>
      <coordinates>25.009927,57.897001,0</coordinates>
    </Point>
  </Placemark>
,   <Placemark>
    <name>Atpūtas vieta ceļā uz Ložmetējkalnu</name>
    <description></description>
    <Point>
      <coordinates>23.637536,56.864164,0</coordinates>
    </Point>
  </Placemark>
,   <Placemark>
    <name>Atpūtas vieta Bārtas upes krastā</name>
    <description>A resting place near the river Barta. There is a toilet, tables, overall a pleasant place. It is possible to reach it by car, from the western direction (Laukgals hamlet), accessible also from north (Kiburu road).</description>
    <Point>
      <coordinates>21.159062,56.362567,0</coordinates>
    </Point>
  </Placemark>
,   <Placemark>
    <name>Atpūtas vieta Banksa priedes</name>
    <description></description>
    <Point>
      <coordinates>26.738502,55.694115,0</coordinates>
    </Point>
  </Placemark>
,   <Placemark>
    <name>Atpūtas vieta Avotu karjerā</name>
    <description></description>
    <Point>
      <coordinates>21.295054,56.768545,0</coordinates>
    </Point>
  </Placemark>
,   <Placemark>
    <name>Atpūtas vieta Akmens</name>
    <description>A very secluded and hard to reach place, but pleasant and wide enough to have place for many tents. There is even a brick fireplace and a picnic house here. The river Iča is nearby, but it is very narrow and grown in, hard to even find it.</description>
    <Point>
      <coordinates>27.180729,56.791289,0</coordinates>
    </Point>
  </Placemark>
,   <Placemark>
    <name>Atpūtas vieta</name>
    <description></description>
    <Point>
      <coordinates>26.838831,55.75948,0</coordinates>
    </Point>
  </Placemark>
,   <Placemark>
    <name>Andrupenes purva taka</name>
    <description></description>
    <Point>
      <coordinates>27.3929929733,56.184355671,0</coordinates>
    </Point>
  </Placemark>
,   <Placemark>
    <name>Ančupānu tornis</name>
    <description></description>
    <Point>
      <coordinates>27.315228,56.53859,0</coordinates>
    </Point>
  </Placemark>
,   <Placemark>
    <name>Ančupānu meža parks</name>
    <description></description>
    <Point>
      <coordinates>27.315968,56.534635,0</coordinates>
    </Point>
  </Placemark>
,   <Placemark>
    <name>Amatas ģeotaka</name>
    <description></description>
    <Point>
      <coordinates>25.23488,57.22222,0</coordinates>
    </Point>
  </Placemark>
,   <Placemark>
    <name>Ako piemiņas vieta</name>
    <description>A big meadow with lots of space, but quite popular due to easy access to the river.</description>
    <Point>
      <coordinates>24.387388,56.843189,0</coordinates>
    </Point>
  </Placemark>
,   <Placemark>
    <name>Atpūtas vieta Ventmala</name>
    <description>Resting place at the Venta river, quite a way from the road, have to drive over a muddy forest road, which could be difficult in bad weather. In summer it is easier and the place is very wide and has a nice view. The amenities are old and there is a better picnic place near the bridge in Nigrande</description>
    <Point>
      <coordinates>22.105548,56.479328,0</coordinates>
    </Point>
  </Placemark>
,   <Placemark>
    <name>Atpūtas vieta Vecvietas</name>
    <description>A beautiful and well equipped picnic spot at the Salaca river. You can build tents, there are four separate picnic spots with tables, grill places, toilets, even firewood. An excellent location, easily accessible from the road or the river.</description>
    <Point>
      <coordinates>24.591234,57.877866,0</coordinates>
    </Point>
  </Placemark>
,   <Placemark>
    <name>Atpūtas vieta Vasas</name>
    <description>A huge free campground not far from the Tuja village. Has tables, fireplaces, toilets plenty of room for tents. The place is right on the beach, the individual spots are not physically separated, but since the territory is very big, there is no overcrowding. The only negative aspect could be that since this is a popular spot, there are always other campers and some of them might be noisy at night. Place is not managed or guarded, but is an official campground owned by state forest service. There are smaller picnic sites nearby this one, but we count them all as one area.</description>
    <Point>
      <coordinates>24.37807,57.52097,0</coordinates>
    </Point>
  </Placemark>
,   <Placemark>
    <name>Atpūtas vieta Tīteņi Steķu silā</name>
    <description>A picnic place located at a small forest lake, very secluded, can drive up from the north direction (see map). The equipment is old, but the table and benches are usable.</description>
    <Point>
      <coordinates>26.220981,56.401778,0</coordinates>
    </Point>
  </Placemark>
,   <Placemark>
    <name>Atpūtas vieta Tikšanās vieta</name>
    <description></description>
    <Point>
      <coordinates>22.107398,57.364014,0</coordinates>
    </Point>
  </Placemark>
,   <Placemark>
    <name>Atpūtas vieta Šūpoles</name>
    <description>An old picnic place in a forest, table is in bad condition and the place is run down, but can be used as a last resort tenting place.</description>
    <Point>
      <coordinates>26.666347,57.280554,0</coordinates>
    </Point>
  </Placemark>
,   <Placemark>
    <name>Atpūtas vieta Šilovka</name>
    <description></description>
    <Point>
      <coordinates>27.240711,55.832963,0</coordinates>
    </Point>
  </Placemark>
,   <Placemark>
    <name>Atpūtas vieta Rozēnu tilts</name>
    <description>A well equipped picnic and camping spot near the Salaca river. You can pitch tents, there are two tables near eachother at the side of the road. The tent you can also build near the river itself, but there isn&#039;t plenty of space. A wider area is located in a meadow near the road. Not spectacular, but good enough.</description>
    <Point>
      <coordinates>24.646828,57.885608,0</coordinates>
    </Point>
  </Placemark>
,   <Placemark>
    <name>Atpūtas vieta Rojnieki</name>
    <description></description>
    <Point>
      <coordinates>22.081704,57.610324,0</coordinates>
    </Point>
  </Placemark>
,   <Placemark>
    <name>Atpūtas vieta Riebiņu ezers</name>
    <description>A picnic place near Riebinu lake, more something of a swimming place, there is a dressing booth and the tables are pretty old, looks like local people visit this place often for swimming.</description>
    <Point>
      <coordinates>24.963482,57.374589,0</coordinates>
    </Point>
  </Placemark>
,   <Placemark>
    <name>Atpūtas vieta Restorāns</name>
    <description>A big picnic house with several tables, located on the crossroads of straight forest roads. Not a pleasant place, looks as if mostly hunters use it. In desperate situation you can eat here or pitch a tent, but the more logical step would be to go to the nearby Lubana lake.</description>
    <Point>
      <coordinates>26.884861,56.656299,0</coordinates>
    </Point>
  </Placemark>
,   <Placemark>
    <name>Atpūtas vieta Ramata</name>
    <description></description>
    <Point>
      <coordinates>24.972388,57.923119,0</coordinates>
    </Point>
  </Placemark>
,   <Placemark>
    <name>Atpūtas vieta Raktais Ceļš</name>
    <description></description>
    <Point>
      <coordinates>26.209378,56.155891,0</coordinates>
    </Point>
  </Placemark>
,   <Placemark>
    <name>Atpūtas vieta Pūcīte</name>
    <description></description>
    <Point>
      <coordinates>21.171525,56.424901,0</coordinates>
    </Point>
  </Placemark>
,   <Placemark>
    <name>Atpūtas vieta Priežu mežs</name>
    <description>A resting place in a forest. There is a huge, recently built table with a roof, a fire pit and other niceties.</description>
    <Point>
      <coordinates>21.131909,56.188861,0</coordinates>
    </Point>
  </Placemark>
,   <Placemark>
    <name>Atpūtas vieta Piļkas</name>
    <description>A rest area in the crossroads of some forest roads. The place is ok, but there is no table and no toilet, only a shelter, fire place, and some places for tents. Not a spectacular place, but maybe for a quick overnight sleep is fine.</description>
    <Point>
      <coordinates>25.934223,56.419019,0</coordinates>
    </Point>
  </Placemark>
,   <Placemark>
    <name>Atpūtas vieta piecu ceļu krustā</name>
    <description>A picnic place with several tables and a fire pit, near the intersection of five forest roads. The roads are not very active.</description>
    <Point>
      <coordinates>23.696597,56.836104,0</coordinates>
    </Point>
  </Placemark>
,   <Placemark>
    <name>Atpūtas vieta pie Vorcu ezera</name>
    <description>Near a forest gravel road, a small picnic place with a few new tables. The old ones are being used as firewood right now. A small access place to the lake, so you can have a swim too.  Possible to find a place for tent as well.</description>
    <Point>
      <coordinates>27.746079,56.371814,0</coordinates>
    </Point>
  </Placemark>
,   <Placemark>
    <name>Atpūtas vieta pie Vārmes</name>
    <description>A table with benches near a pond. Not very pleasant, the table is old, the place is open and near a road. Maybe a place to eat your sandwitch and stretch your legs, while passing by, nothing more. If no nicer alternatives, can build tents here.</description>
    <Point>
      <coordinates>22.146794,56.865245,0</coordinates>
    </Point>
  </Placemark>
,   <Placemark>
    <name>Atpūtas vieta pie Valda ezera</name>
    <description></description>
    <Point>
      <coordinates>25.773787,57.749518,0</coordinates>
    </Point>
  </Placemark>
,   <Placemark>
    <name>Atpūtas vieta pie Vaidavas ezera</name>
    <description></description>
    <Point>
      <coordinates>27.11042,57.555377,0</coordinates>
    </Point>
  </Placemark>
,   <Placemark>
    <name>Atpūtas vieta pie Vadzola ezera</name>
    <description></description>
    <Point>
      <coordinates>26.189864,56.816678,0</coordinates>
    </Point>
  </Placemark>
,   <Placemark>
    <name>Atpūtas vieta pie Ūdriņām</name>
    <description></description>
    <Point>
      <coordinates>25.678421,57.621014,0</coordinates>
    </Point>
  </Placemark>
,   <Placemark>
    <name>Atpūtas vieta pie Suķiera ezera</name>
    <description></description>
    <Point>
      <coordinates>25.857321,57.851345,0</coordinates>
    </Point>
  </Placemark>
,   <Placemark>
    <name>Atpūtas vieta pie Spicu tilta</name>
    <description></description>
    <Point>
      <coordinates>25.996992,57.672529,0</coordinates>
    </Point>
  </Placemark>
,   <Placemark>
    <name>Atpūtas vieta pie Spiciera ezera</name>
    <description></description>
    <Point>
      <coordinates>25.96233,57.4233,0</coordinates>
    </Point>
  </Placemark>
,   <Placemark>
    <name>Atpūtas vieta pie Šostu ezera</name>
    <description>A nice place near a forest lake. There is a picnic booth, a fire pit and space for tents. Very pleasant and recommended.</description>
    <Point>
      <coordinates>27.637155,56.380888,0</coordinates>
    </Point>
  </Placemark>
,   <Placemark>
    <name>Atpūtas vieta pie Soročkas ezera</name>
    <description></description>
    <Point>
      <coordinates>27.27435,56.253703,0</coordinates>
    </Point>
  </Placemark>
,   <Placemark>
    <name>Atpūtas vieta pie Rindas upes</name>
    <description></description>
    <Point>
      <coordinates>21.884517,57.516309,0</coordinates>
    </Point>
  </Placemark>
,   <Placemark>
    <name>Atpūtas vieta pie Puteru ezera</name>
    <description></description>
    <Point>
      <coordinates>22.193698,57.602846,0</coordinates>
    </Point>
  </Placemark>
,   <Placemark>
    <name>Atpūtas vieta pie Plisūna (Plusona) ezera</name>
    <description></description>
    <Point>
      <coordinates>28.010585,56.210449,0</coordinates>
    </Point>
  </Placemark>
,   <Placemark>
    <name>Atpūtas vieta pie Pinku ezera</name>
    <description></description>
    <Point>
      <coordinates>21.69266,56.999361,0</coordinates>
    </Point>
  </Placemark>
,   <Placemark>
    <name>Atpūtas vieta pie Pinku ezera</name>
    <description></description>
    <Point>
      <coordinates>21.691186,57.001364,0</coordinates>
    </Point>
  </Placemark>
,   <Placemark>
    <name>Atpūtas vieta pie Pīļezera</name>
    <description>Several resting places near a lake, surounded by forests. Appropriate to take a swim. A few simple tables in several places. Not very romantic, but good enough for a quick stop, meal and swim.</description>
    <Point>
      <coordinates>24.894032,57.285527,0</coordinates>
    </Point>
  </Placemark>
,   <Placemark>
    <name>Atpūtas vieta pie Pātraža ezera</name>
    <description>A picnic place near a forest lake. There is a sheltered table, fire place, access to the lake with a small pier. The place is nice and kept clean.</description>
    <Point>
      <coordinates>26.722992,57.339285,0</coordinates>
    </Point>
  </Placemark>
,   <Placemark>
    <name>Atpūtas vieta pie Motrīnes ezera</name>
    <description></description>
    <Point>
      <coordinates>27.603313,56.870344,0</coordinates>
    </Point>
  </Placemark>
,   <Placemark>
    <name>Atpūtas vieta pie Meistara ezera (Malstara ezers)</name>
    <description></description>
    <Point>
      <coordinates>27.158818,57.508333,0</coordinates>
    </Point>
  </Placemark>
,   <Placemark>
    <name>Atpūtas vieta Pie medņa</name>
    <description></description>
    <Point>
      <coordinates>26.511843,56.922842,0</coordinates>
    </Point>
  </Placemark>
,   <Placemark>
    <name>Atpūtas vieta pie Lielā Svētiņu ezera</name>
    <description>A nice lake with a picnic place, benches and a fireplace. Simple to reach by car, but very remote and secluded. Pleasant. Can build a tent or many.</description>
    <Point>
      <coordinates>27.150648,56.764456,0</coordinates>
    </Point>
  </Placemark>
,   <Placemark>
    <name>Atpūtas vieta pie Līdaču (Leidaču) ezera</name>
    <description></description>
    <Point>
      <coordinates>27.053631,56.23739,0</coordinates>
    </Point>
  </Placemark>
,   <Placemark>
    <name>Atpūtas vieta pie Lazdaga ezera</name>
    <description></description>
    <Point>
      <coordinates>26.968765,57.054828,0</coordinates>
    </Point>
  </Placemark>
,   <Placemark>
    <name>Atpūtas vieta pie Lašupes dzirnavu dīķa</name>
    <description>A nice place near a pond, there is a sheltered picnic table, a fire pit, the place is maintained and pleasant. A little secluded too.</description>
    <Point>
      <coordinates>22.291644,56.710623,0</coordinates>
    </Point>
  </Placemark>
,   <Placemark>
    <name>Atpūtas vieta pie Laņģezera</name>
    <description></description>
    <Point>
      <coordinates>25.418667,57.991983,0</coordinates>
    </Point>
  </Placemark>
,   <Placemark>
    <name>Atpūtas vieta pie Krūtes pilskalna</name>
    <description></description>
    <Point>
      <coordinates>21.38851,56.331385,0</coordinates>
    </Point>
  </Placemark>
,   <Placemark>
    <name>Atpūtas vieta pie Kovšu ezerav (Kaušezers)</name>
    <description></description>
    <Point>
      <coordinates>28.037999,56.229737,0</coordinates>
    </Point>
  </Placemark>
,   <Placemark>
    <name>Atpūtas vieta pie Kovšu ezera (Kaušezers)</name>
    <description></description>
    <Point>
      <coordinates>28.024167,56.233471,0</coordinates>
    </Point>
  </Placemark>
,   <Placemark>
    <name>Atpūtas vieta pie Kovšu ezera (Kaušezers)</name>
    <description></description>
    <Point>
      <coordinates>28.034751,56.228944,0</coordinates>
    </Point>
  </Placemark>
,   <Placemark>
    <name>Atpūtas vieta pie Kovšu ezera (Kaušezers)</name>
    <description></description>
    <Point>
      <coordinates>28.031398,56.230069,0</coordinates>
    </Point>
  </Placemark>
,   <Placemark>
    <name>Lielā Ķemeru tīreļa laipa</name>
    <description>Most probably the most popular mire trail in Latvia, recently rebuilt. This is the first boarded trail that got peoples attention, most likely because of the vicinity to the capital. Parking is 2EUR, toilets available.</description>
    <Point>
      <coordinates>23.46516,56.91659,0</coordinates>
    </Point>
  </Placemark>
,   <Placemark>
    <name>Katlapiezis Sigulda</name>
    <description></description>
    <Point>
      <coordinates>24.84209,57.16504,0</coordinates>
    </Point>
  </Placemark>
,   <Placemark>
    <name>Kartavkalna taka</name>
    <description>A wide territory with more than one walking path, several nice picnic places and a fire pit. There is a replica of an old latvian castle built here. The name &quot;Kartavkalns&quot; comes from latvian &quot;The Hanging mound&quot;.</description>
    <Point>
      <coordinates>23.017921,56.716568,0</coordinates>
    </Point>
  </Placemark>
,   <Placemark>
    <name>Kārķu Lustiņdruvas taka</name>
    <description></description>
    <Point>
      <coordinates>25.61401,57.81694,0</coordinates>
    </Point>
  </Placemark>
,   <Placemark>
    <name>Kaņiera pilskalna tornis</name>
    <description>A birdwatching tower at the Kaniera lake</description>
    <Point>
      <coordinates>23.4336358,56.9915415,0</coordinates>
    </Point>
  </Placemark>
,   <Placemark>
    <name>Kaņiera niedrāja taka</name>
    <description><p>A nice floating duckboard walk between the islands of the Kaniera lake. The trail is mounted on floating mounts, so you are walking on water - a very pleasant feeling. Plenty of different birds here and a wonderful view from the birdwatching tower.</p></description>
    <Point>
      <coordinates>23.4761,56.99764,0</coordinates>
    </Point>
  </Placemark>
,   <Placemark>
    <name>Kaņiera pilskalna taka</name>
    <description>A loop trail near the Kaniera lake, around 2.5km long, plenty of informational boards on the way. There is a birdwatching tower on the way. Fire is not permitted officially, although somebody has made an illegal fire pit near the tower picnic place. No toilet</description>
    <Point>
      <coordinates>23.42585,56.99191,0</coordinates>
    </Point>
  </Placemark>
,   <Placemark>
    <name>Kaņiera ezera putnu tornis</name>
    <description></description>
    <Point>
      <coordinates>23.471067,57.000673,0</coordinates>
    </Point>
  </Placemark>
,   <Placemark>
    <name>Kamparkalna skatu tornis</name>
    <description>This very high tower is located in the highest place of Northern Kurland, the hill called Kamparkalns.</description>
    <Point>
      <coordinates>22.643767,57.214432,0</coordinates>
    </Point>
  </Placemark>
,   <Placemark>
    <name>Kaltenes putnu tornis</name>
    <description>A birdwatching tower at the Kaltene bird trail. The trail itself is so old that you can barely follow it, although there is a new toilet at the free parking. We have placed the waypoint at the tower itself.</description>
    <Point>
      <coordinates>22.909638,57.438396,0</coordinates>
    </Point>
  </Placemark>
,   <Placemark>
    <name>Kaltenes kalvas</name>
    <description>In the forest, some one and a half kilometers from Kaltene beach, you will find interesting rock piles, which are called &quot;Kalvas&quot;. These uniquie formations are the only such things in the whole Latvian coastline. The trail will show you around them.</description>
    <Point>
      <coordinates>22.855719,57.458136,0</coordinates>
    </Point>
  </Placemark>
,   <Placemark>
    <name>Kalnu dabas taka</name>
    <description><p>This trail was opened in 2015. and is built by locals with assistance from various funds. The trail follows the Losis river, which is nice and picturesque at times. There are several nice picnic places along the way. The trail provides signs for a guessing game for kids in latvian language.</p></description>
    <Point>
      <coordinates>22.115837,56.458694,0</coordinates>
    </Point>
  </Placemark>
,   <Placemark>
    <name>Kalētu dendroloģiskās takas</name>
    <description></description>
    <Point>
      <coordinates>21.495379,56.358114,0</coordinates>
    </Point>
  </Placemark>
,   <Placemark>
    <name>Jušu dabas taka</name>
    <description>An interesting trail for children. They will have to find small pictures of the imaginary forest spirits. The trail starts near Sigulda castle. There is parking and toilets. Trail goes through a forested area and can sometimes be difficult to follow, use the map to follow the marked route.</description>
    <Point>
      <coordinates>24.85332,57.16621,0</coordinates>
    </Point>
  </Placemark>
,   <Placemark>
    <name>Jēču taka</name>
    <description></description>
    <Point>
      <coordinates>25.447598,57.843015,0</coordinates>
    </Point>
  </Placemark>
,   <Placemark>
    <name>Jāņupītes taka</name>
    <description>A nice forest trail. Suggested approach is from the north side, near the Dreimani homestead. There is a &quot;private property&quot; sign, but you can safely pass that, as there is no other way to get here.</description>
    <Point>
      <coordinates>23.03877,57.11317,0</coordinates>
    </Point>
  </Placemark>
,   <Placemark>
    <name>Imulas upes taka</name>
    <description>Imula flows into the river of Abava, it is a curved and steep coasted river. The length of this trail is around 5km and it will lead you until the Buse mound. The trail is badly marked and pretty overgrown, you will have to use the map to follow it. In the beginning there is a nice resting place and parking</description>
    <Point>
      <coordinates>22.6245833,57.0126641,0</coordinates>
    </Point>
  </Placemark>
,   <Placemark>
    <name>Ilgāja naudas akmens taka</name>
    <description></description>
    <Point>
      <coordinates>26.874,57.5865,0</coordinates>
    </Point>
  </Placemark>
,   <Placemark>
    <name>Grebļu kalns</name>
    <description></description>
    <Point>
      <coordinates>28.1144319,56.1787431,0</coordinates>
    </Point>
  </Placemark>
,   <Placemark>
    <name>Grebļa kalns</name>
    <description></description>
    <Point>
      <coordinates>28.11183,56.177783,0</coordinates>
    </Point>
  </Placemark>
,   <Placemark>
    <name>Gaujienas taka</name>
    <description></description>
    <Point>
      <coordinates>26.400275,57.516872,0</coordinates>
    </Point>
  </Placemark>
,   <Placemark>
    <name>Gārsenes parks</name>
    <description>Around the river of Dienvidsuseja, near the Garsene casle, a whole system of short trails has been made. There are many camping and picnic places, including fire pits and a boat rental. We suggest you to start from the Garsene castle, where a ticket must be purchased.</description>
    <Point>
      <coordinates>25.81126,56.1,0</coordinates>
    </Point>
  </Placemark>
,   <Placemark>
    <name>Eversmuižas taka</name>
    <description></description>
    <Point>
      <coordinates>27.884674,56.551537,0</coordinates>
    </Point>
  </Placemark>
,   <Placemark>
    <name>Engures ezera Z tornis</name>
    <description>A newly built birdwatching tower inside a boating base. A private territory, so not really clear how much you can do here without renting a boat.</description>
    <Point>
      <coordinates>23.089361,57.3178117,0</coordinates>
    </Point>
  </Placemark>
,   <Placemark>
    <name>Engures ezera putnu tornis</name>
    <description>A birdwatching tower in the Engure ornithology base. Free access, you can walk the Orchid trail on the way to the tower.</description>
    <Point>
      <coordinates>23.12672,57.27163,0</coordinates>
    </Point>
  </Placemark>
,   <Placemark>
    <name>Engures ezera atpūtas vietas</name>
    <description>Several picnic tables in the marked spot and to the south along the lake. Fire pit, toilets, plenty of room for tents as well. Don&#039;t miss the Orchid trail and birdwatching tower through the Ornithology base (free access).</description>
    <Point>
      <coordinates>23.13675,57.25762,0</coordinates>
    </Point>
  </Placemark>
,   <Placemark>
    <name>Embūtes pilskalns</name>
    <description><p>The Embute castle mound is an object of archeological importance, although no actually visible ruins remain here. You can find information about it in the town centre, there is an information office there. Near the mound you will find parking, a wide area for tents and a nice little stream with tasty fresh water. There is a short trail around the mound itself.&nbsp;</p></description>
    <Point>
      <coordinates>21.8182,56.51089,0</coordinates>
    </Point>
  </Placemark>
,   <Placemark>
    <name>Elles kalns</name>
    <description></description>
    <Point>
      <coordinates>22.9264,56.75499,0</coordinates>
    </Point>
  </Placemark>
,   <Placemark>
    <name>Ēkāju ozols</name>
    <description>A camping spot near a huge oak. There is a table, swings for children. You could pitch tents here without issue. The wooden equipment is old and there is a quarry nearby, so we can&#039;t recommend this for a special trip. Good only if passing by.</description>
    <Point>
      <coordinates>24.499336,57.911451,0</coordinates>
    </Point>
  </Placemark>
,   <Placemark>
    <name>Egļukalna skatu tornis</name>
    <description>Currently closed! (A great view from this high tower, when it was open)</description>
    <Point>
      <coordinates>26.330263,55.873201,0</coordinates>
    </Point>
  </Placemark>
,   <Placemark>
    <name>Dziļezera-Riebezera taka</name>
    <description>The trail makes a circle around one of the two lakes, over a narrow stretch of ground that separates them. Good boots recommended, as a few places gan get wet. The sign before the trail says you have to call to announce your visit. Otherwise the trail is free and owner is friendly. Path as such is maybe not very interesting, but the picnic places between the lakes are pleasant. The later visitors report, that now the trail costs 1EUR and the picnic site use costs 2EUR. You have to call the number listed on the sign at the entrance. </description>
    <Point>
      <coordinates>24.581137,57.501761,0</coordinates>
    </Point>
  </Placemark>
,   <Placemark>
    <name>Dzērves kakls</name>
    <description></description>
    <Point>
      <coordinates>26.686533,56.880211,0</coordinates>
    </Point>
  </Placemark>
,   <Placemark>
    <name>Dvietes skatu platforma</name>
    <description></description>
    <Point>
      <coordinates>26.17743,56.06749,0</coordinates>
    </Point>
  </Placemark>
,   <Placemark>
    <name>Dunikas purva taka</name>
    <description>A long duckboard trail over the Dunika mire. The route is several kilometers long, and goes in one direction, meaning you will have to retrace your steps back. In the middle of the mire you will find a unique hornbeam thicket (at south end of the trail). Can start from either end of trail.</description>
    <Point>
      <coordinates>21.382775,56.280701,0</coordinates>
    </Point>
  </Placemark>
,   <Placemark>
    <name>Dunduru pļavu tornis</name>
    <description>A birdwatching tower in the the Dunduri meadows, which surround the Slampe river, now restored to it&#039;s original path, after straightening in the soviet times. You can see wild cows here.</description>
    <Point>
      <coordinates>23.4011805,56.8335449,0</coordinates>
    </Point>
  </Placemark>
,   <Placemark>
    <name>Drusku pilskalna taka</name>
    <description>An interesting trail leading to the Drusku mound, which is one of the steepest mounds in Latvia.</description>
    <Point>
      <coordinates>26.93333,57.59448,0</coordinates>
    </Point>
  </Placemark>
,   <Placemark>
    <name>Driksnis</name>
    <description>The Driksnis lake picnic spot is a little shaded, has a picnic booth with a table, also has a table outside. There is a small pier to enjoy the view or swim. Toilet is provided.</description>
    <Point>
      <coordinates>26.21082,56.68033,0</coordinates>
    </Point>
  </Placemark>
,   <Placemark>
    <name>Dauģēnu dabas taka</name>
    <description></description>
    <Point>
      <coordinates>24.99788,57.87415,0</coordinates>
    </Point>
  </Placemark>
,   <Placemark>
    <name>Daugavgrīvas tornis</name>
    <description></description>
    <Point>
      <coordinates>24.0131503,57.039653,0</coordinates>
    </Point>
  </Placemark>
,   <Placemark>
    <name>Daugavgrīvas mols</name>
    <description>Not a proper trail, but a nice walk on the beach. The waypoint will bring you to a car parking where you can start your walk towards the Daugavgriva lighthouse. You can see sand dunes, old soviet buildings, WW1 bunkers and many other things on the way.</description>
    <Point>
      <coordinates>24.02154,57.04642,0</coordinates>
    </Point>
  </Placemark>
,   <Placemark>
    <name>Dabas parks Laukezers</name>
    <description>One of the purest lakes in Latvia, the Laukezers lakes is a protected area. There is a big parking area near a short boardwalk, which leads to the beach area. There is a dressing booth, a fire place with a grill. There is an icon on the info board, that tenting is not allowed, although there is plenty of room for this. A clean and nice toilet is available near the parking area.</description>
    <Point>
      <coordinates>25.997589,56.48993,0</coordinates>
    </Point>
  </Placemark>
,   <Placemark>
    <name>Dabas lieguma Dunika skābaržu audze</name>
    <description>A damp, dark and overgrown place, which can basically be used for parking the car and walking to the Dunika duckboard trail. The trail starts behind the picnic table, don&#039;t get lost - the trail is not near the sign. That just leads you into the deep forest.</description>
    <Point>
      <coordinates>21.403041,56.240102,0</coordinates>
    </Point>
  </Placemark>
,   <Placemark>
    <name>Čužu purva taka</name>
    <description><p class="lead">Cuzu mire trail is a pleasant daytrip with a nice picnic place near the river.&nbsp;</p>

<p>Of course, do not miss the Kandava city, a wonderful latvian town with charm of it&#39;s own. After you have seen Kandava, cross the bridge and turn to the direction of &quot;Zemite&quot;, after a few hundred meters you will find an arrow to the right, pointing towards the &quot;Cuzu purva dabas taka&quot;. The trail is 3km long and a section is made from wooden boards. On the way, you can turn towards the river Abava, to find a charming picnic place, with firewood and a firepit.&nbsp;</p>

<p>Later on the way you can make a small detour to reach the Devils stream, where you can drink wonderful clean water coming out from the earth. There are also wild cows nearby. Please don&#39;t pick the flowers, as they are most likely protective species that bloom during various periods during the summer.&nbsp;</p></description>
    <Point>
      <coordinates>22.78538,57.02638,0</coordinates>
    </Point>
  </Placemark>
,   <Placemark>
    <name>Cīrulīšu dabas taka</name>
    <description></description>
    <Point>
      <coordinates>25.2213,57.30722,0</coordinates>
    </Point>
  </Placemark>
,   <Placemark>
    <name>Ciriša ezera upursalas taka</name>
    <description>The trail is located on an island in the Cirisa lake. You can rent a boat from one of the houses nearby, if you ask around. If you have your own boat, the best place to start is behind the Aglona bandstand, where you will find a pleasant rest place and beach. The trail itself is very diverse and worth visiting. There are picnic places on the island.</description>
    <Point>
      <coordinates>26.9898,56.131985,0</coordinates>
    </Point>
  </Placemark>
,   <Placemark>
    <name>Cenas tīreļa tornis II</name>
    <description></description>
    <Point>
      <coordinates>23.8253741,56.8527813,0</coordinates>
    </Point>
  </Placemark>
,   <Placemark>
    <name>Cenas tīreļa tornis I</name>
    <description></description>
    <Point>
      <coordinates>23.7940049,56.8621035,0</coordinates>
    </Point>
  </Placemark>
,   <Placemark>
    <name>Cenas tīreļa laipa</name>
    <description>A mere twenty minutes drive from Riga you will find one of the finest boarded mire trails of Latvia. A wonderful swamp trail nearby the capital. There are toilets, picnic tables, information boards and a few birdwatching towers. 

To reach this place from the Riga direction, turn left at the sign &quot;Cielavas&quot; or &quot;Purva laipa&quot; (meaning mire trail). In the beginning, the trail will pass a peat harvesting area with a tower overlooking the peatland. A few information boards have been put up by the company that runs this place and you can learn about peat harvesting processes. A little bit further, the trail splits into two, creating the Cena Mire loop, turn right to see the wonderful Skaista lake (meaning Beautiful in latvian), and at the furthest reach of the trail, also a nice birdwatching/observation tower. 

Although unclear if this is actually permitted, we did camp here once with a tent, on a widened section of the wooden trail, see photos below. </description>
    <Point>
      <coordinates>23.78864,56.862713,0</coordinates>
    </Point>
  </Placemark>
,   <Placemark>
    <name>Ceļa mala</name>
    <description>An older picnic site near a road, not much room for a tent, but you can stop to have a meal here.</description>
    <Point>
      <coordinates>21.2352,56.415119,0</coordinates>
    </Point>
  </Placemark>
,   <Placemark>
    <name>Cecīļu dabas taka</name>
    <description>The Cecilu trail will allow you to visit the Amata, Kumada and Dancu rivers and other nature sights in the region. Leave your vehicle a little before the trailhead, opposite the woodcutting company territory. The trail starts right before the gate to a private territory, there should be an arrow pointing left, to indicate start of the trail. The trail is a little over-maintained, with things like picnic places and even electrical lights.</description>
    <Point>
      <coordinates>25.165,57.21873,0</coordinates>
    </Point>
  </Placemark>
,   <Placemark>
    <name>Bušnieki</name>
    <description></description>
    <Point>
      <coordinates>21.661681,57.438672,0</coordinates>
    </Point>
  </Placemark>
,   <Placemark>
    <name>Burtnieku ez. polderu tornis</name>
    <description></description>
    <Point>
      <coordinates>25.2911708,57.748807,0</coordinates>
    </Point>
  </Placemark>
,   <Placemark>
    <name>Bumbu kalna tornis</name>
    <description></description>
    <Point>
      <coordinates>24.0201817,57.0039713,0</coordinates>
    </Point>
  </Placemark>
,   <Placemark>
    <name>Bezdibeņa ezera taka</name>
    <description>A nice but short swamp trail near the Bezdibena lake (translated as Abyss). The trail is made of wooden planks, which have degraded over time, so it is in need of repairs and might be difficult with a stroller.</description>
    <Point>
      <coordinates>22.394389,56.905859,0</coordinates>
    </Point>
  </Placemark>
,   <Placemark>
    <name>Bebru taka</name>
    <description>A quite short trail in a forested area, with several activities for children. A little overgrown, has a few picnic spots, but not worth a special trip. Only if you need to stretch your legs when passing by.</description>
    <Point>
      <coordinates>27.079416,57.278229,0</coordinates>
    </Point>
  </Placemark>
,   <Placemark>
    <name>Balvu vecais parks</name>
    <description></description>
    <Point>
      <coordinates>27.229092,57.13218,0</coordinates>
    </Point>
  </Placemark>
,   <Placemark>
    <name>Baļotes ezers</name>
    <description>A nice beach near the Balote lake, good picnic tables, fire pits, toilet, parking. A pleasant place for tents with access to the lake.</description>
    <Point>
      <coordinates>26.00739,56.54587,0</coordinates>
    </Point>
  </Placemark>
,   <Placemark>
    <name>Augstrozes pilskalns</name>
    <description>A pleasant place that was recently renovated. You can stop here to see a castle mound with some ruins, a nice view, a short trail on the top and a small picnic spot. Photos before renovation.</description>
    <Point>
      <coordinates>25.013423,57.51429,0</coordinates>
    </Point>
  </Placemark>
,   <Placemark>
    <name>Atpūtas vietas pie Segliņu ezera</name>
    <description></description>
    <Point>
      <coordinates>22.262252,57.096683,0</coordinates>
    </Point>
  </Placemark>
,   <Placemark>
    <name>Atpūtas vietas pie Niedrāja ezera</name>
    <description>Several wonderful resting places around a forest lake, most of them nicely equipped with tables, firepits, grills, firewood and toilets. Some have nice swimming features and small piers with benches to enjoy the wonderful views. Highly recommended.</description>
    <Point>
      <coordinates>25.974883,57.431235,0</coordinates>
    </Point>
  </Placemark>
,   <Placemark>
    <name>Atpūtas vieta Zemenīte</name>
    <description></description>
    <Point>
      <coordinates>26.76511,55.88645,0</coordinates>
    </Point>
  </Placemark>
,   <Placemark>
    <name>Atpūtas vieta Virši</name>
    <description></description>
    <Point>
      <coordinates>24.802305,57.880382,0</coordinates>
    </Point>
  </Placemark>
,   <Placemark>
    <name>Atpūtas vieta Vīķi</name>
    <description></description>
    <Point>
      <coordinates>24.797474,57.860938,0</coordinates>
    </Point>
  </Placemark>
,   <Placemark>
    <name>Saulrieta taka</name>
    <description>This 3.6km long walk from the White dune to Peterupe is mostly on the beach and in the seaside dunes. It is possible to walk futher until Zvejniekciems village or as far as you desire, since most of the trail is unmarked and follows the coast.</description>
    <Point>
      <coordinates>24.39314,57.23362,0</coordinates>
    </Point>
  </Placemark>
,   <Placemark>
    <name>Saukas ezers</name>
    <description>A nice picnic and camping place near the Sauka lake (Saukas ezers), a perfect place to pitch tents. There are tables, a fire pit and good access to the lake for swimming or for a boat ride, if you take one with you. The place is not near a big road, so there should be no disturbance at night.</description>
    <Point>
      <coordinates>25.46997,56.2558,0</coordinates>
    </Point>
  </Placemark>
,   <Placemark>
    <name>Sasaļu mežs</name>
    <description>Picnic places near the Sasaļu lake. There are three swimming spots, the middle locations has a better table. This is a protected area with several important habitats and a eutrophic lake.</description>
    <Point>
      <coordinates>26.30388,55.92927,0</coordinates>
    </Point>
  </Placemark>
,   <Placemark>
    <name>Salaspils pludmale</name>
    <description>The beach near Salaspils has plenty of picnic tables, a childrens playground, swimming locations. The picnic spots have fire pits and the area is quite nice overall. Recently built. I would not say this is a place for tents, but some place to stop when passing by, to each lunch and stretch your legs. Maybe tenting is possible when no other options, because place is quite public.</description>
    <Point>
      <coordinates>24.338808,56.847531,0</coordinates>
    </Point>
  </Placemark>
,   <Placemark>
    <name>Romeškalna taka</name>
    <description>This trail connects the Romeslalns school and the Korneti town. This trail will show you views from the Liepinu house to the Korulu lake, and from the Legeni hill to the Korneti valley. Near the Vosvu farm you will find an ancient site - the Gods hill and the Mara stone. Along the way you will also see one of the biggest stones in the area - the Sipinu stone. The trail is marked with yellow triangles and white signs.</description>
    <Point>
      <coordinates>26.9109,57.5631,0</coordinates>
    </Point>
  </Placemark>
,   <Placemark>
    <name>Riežupes dabas parks</name>
    <description>A picnic area in the Riezupa nature park, near the river</description>
    <Point>
      <coordinates>22.008163,56.995067,0</coordinates>
    </Point>
  </Placemark>
,   <Placemark>
    <name>Remtes parks</name>
    <description>A nice park for walks, near the Remte manor.</description>
    <Point>
      <coordinates>22.698352,56.736846,0</coordinates>
    </Point>
  </Placemark>
,   <Placemark>
    <name>Randu pļavu taka</name>
    <description></description>
    <Point>
      <coordinates>24.3445014954,57.8335461333,0</coordinates>
    </Point>
  </Placemark>
,   <Placemark>
    <name>Randatu taka</name>
    <description>A short trail that starts near the Luiku home and continues along the Gauja river. There are dolomite outcrops and plenty of nice views. There is a small resting place near the river and a car parking spot at the trailhead.</description>
    <Point>
      <coordinates>26.34558,57.44544,0</coordinates>
    </Point>
  </Placemark>
,   <Placemark>
    <name>Raipala ezera taka</name>
    <description>The trail goes past the Trumulisa and Ieva lakes, and then circles the Raipala lake, one of Latvias deepest lakes (36 meters). It is possible to make the walk shorter, by cutting back after the first lake and returning to Korneti. The trail is marked.</description>
    <Point>
      <coordinates>26.9501168,57.58991,0</coordinates>
    </Point>
  </Placemark>
,   <Placemark>
    <name>Ragakāpas dabas taka</name>
    <description>A wooden walking path near the sea, leads among the pine forested dunes. Possibility to park for free and in general an interesting place to visit the sea in a less crowded place.</description>
    <Point>
      <coordinates>23.919282,56.995699,0</coordinates>
    </Point>
  </Placemark>
,   <Placemark>
    <name>Purezera taka</name>
    <description>A wonderful wooden path, in the beginning you go through a nice old forest and then make a circle around a small lake. There are nice picnic spots on the lake, with fire pits right on top of the water.</description>
    <Point>
      <coordinates>24.927314,57.67974,0</coordinates>
    </Point>
  </Placemark>
,   <Placemark>
    <name>Pūrciema baltās kāpas taka</name>
    <description>The Purciema Dune is 20 meters high. This wooden plank trail will bring you around the biggest of the dunes. The trail is 900 meters long, but is a pleasant walk and is recommended to stop here, if you do pass by. Free parking.</description>
    <Point>
      <coordinates>22.62787,57.576864,0</coordinates>
    </Point>
  </Placemark>
,   <Placemark>
    <name>Priedaines skatu tornis</name>
    <description>The second highest wooden viewing tower in Latvia is 32 meters tall. There is a nice picnic place available, and a bicycle route goes past it (&quot;Saulkrastu trail&quot;, 8km long). A fire pit is also available.</description>
    <Point>
      <coordinates>27.145689,55.892638,0</coordinates>
    </Point>
  </Placemark>
,   <Placemark>
    <name>Pokaiņu mežs</name>
    <description>All kinds of rock formations and piles around which there are many walking trails in the woods. The wood is silent and pleasant, even ignoring the supposed history of the rocks.</description>
    <Point>
      <coordinates>23.070652,56.576725,0</coordinates>
    </Point>
  </Placemark>
,   <Placemark>
    <name>Plostu sienamā vieta</name>
    <description>A resting place near Gauja, the official name is &quot;Raft lashing place&quot;. There are no tables and the place is quite dark, not very pleasant. We don&#039;t recommend it for picnics or tents.</description>
    <Point>
      <coordinates>26.009261,57.670888,0</coordinates>
    </Point>
  </Placemark>
,   <Placemark>
    <name>Plieņciema taka</name>
    <description>A shiors duckboard trail leads to the beach, where you will find a picnic place with tables and a toilet. A nice place to access the beach, but possibly it&#039;s too close to the nearby village, as it&#039;s often quite messy.</description>
    <Point>
      <coordinates>23.259802,57.087132,0</coordinates>
    </Point>
  </Placemark>
,   <Placemark>
    <name>Planču purva taka</name>
    <description>The Plancu bog trail is a short wooden plank trail with information boards written in Braille, and is also modified with a non-slippery surface to help people with special needs.</description>
    <Point>
      <coordinates>24.753968,57.881084,0</coordinates>
    </Point>
  </Placemark>
,   <Placemark>
    <name>Pilskalnes Siguldiņa</name>
    <description>A broad territory of many trails of different lenghts, an information center and beautiful lakes. Each trail has a different theme - the dendrology trail, the war bunker trail, the views trail etc. Entrance is 2.5EUR</description>
    <Point>
      <coordinates>26.26633,55.97714,0</coordinates>
    </Point>
  </Placemark>
,   <Placemark>
    <name>Piloru ozolu audze</name>
    <description></description>
    <Point>
      <coordinates>27.604578,56.185161,0</coordinates>
    </Point>
  </Placemark>
,   <Placemark>
    <name>Piedrujas taka</name>
    <description></description>
    <Point>
      <coordinates>27.4439833,55.7970716,0</coordinates>
    </Point>
  </Placemark>
,   <Placemark>
    <name>Pēterezera taka</name>
    <description>The start of the trail leads through a pine forest, later becomes narrower and can get steep, so stroller is not recoomended for the most part. There are many wooden bridges and wooden plank trails, so the trail shows quite a lot of different biotopes. There is a swamp lake on the way. A nice trail overall.</description>
    <Point>
      <coordinates>22.2706833,57.6543666,0</coordinates>
    </Point>
  </Placemark>
,   <Placemark>
    <name>Pēteralas Raganu katla taka</name>
    <description>The trail leads to several places, stops at Petera cave and leads to the Witches cauldron, a geological formation. The trail has several route options, is well marked and contains lots of stairs. Very icy in the winter, so we suggest to visit in warmer time.</description>
    <Point>
      <coordinates>24.87426,57.17008,0</coordinates>
    </Point>
  </Placemark>
,   <Placemark>
    <name>Peļļu taka</name>
    <description></description>
    <Point>
      <coordinates>26.874,57.5865,0</coordinates>
    </Point>
  </Placemark>
,   <Placemark>
    <name>Papes putnu tornis</name>
    <description>A birdwatching tower near the Pape lake</description>
    <Point>
      <coordinates>21.0149,56.18742,0</coordinates>
    </Point>
  </Placemark>
,   <Placemark>
    <name>Papes ezers</name>
    <description>The Pape lake is a huge territory with many trails, birdwatching towers and other sites. Suggested to see the Pape website and visit the information center beforehand</description>
    <Point>
      <coordinates>21.0485,56.152,0</coordinates>
    </Point>
  </Placemark>
,   <Placemark>
    <name>Palsmanes piedzīvojumu taka</name>
    <description>A circular tail around 2.2km long, with various optional routes, just follow the signs. The beginning is near a new information board at the Palsa river, near the bridge in Palsmane.</description>
    <Point>
      <coordinates>26.1859685,57.3892728,0</coordinates>
    </Point>
  </Placemark>
,   <Placemark>
    <name>Orhideju taka</name>
    <description>Park your car at the end of the straight road, near the picnic places and the lake. To the right, enter the ornithology complex to visit wild cows and horses, see the Orchid trail and the birdwatching tower. This trail starts near the ornithology base. Go straight into the gate and past the buildings until you find yourself on a road. This road will take you past wild horses and cows, until you will see a sign pointing to the Orchid trail.

Before you go on the trail, a little further along the road is a picnic place and a birdwatching tower on the lake. </description>
    <Point>
      <coordinates>23.13511,57.26036,0</coordinates>
    </Point>
  </Placemark>
,   <Placemark>
    <name>Oleru putnu tornis</name>
    <description>A birdwatching tower near the Oleri nature trail</description>
    <Point>
      <coordinates>25.3689027,57.8080275,0</coordinates>
    </Point>
  </Placemark>
,   <Placemark>
    <name>Oleru purva taka</name>
    <description>The trail leads you though a forest and then through the Oleri mire. A viewing platform is also there. Site includes open transitional mire (Oleru Mire) formed by terrestrialization surrounded by pine dominated bog woodland. Fragmentary, dry coniferous forests are found.</description>
    <Point>
      <coordinates>25.374722,57.8025,0</coordinates>
    </Point>
  </Placemark>
,   <Placemark>
    <name>Ogres zilo kalnu tornis</name>
    <description>A 30.5m high wooden tower at the Ogre blue hills. Nice views from the platform. Nearby is a nice place to have a swim.</description>
    <Point>
      <coordinates>24.56513,56.83409,0</coordinates>
    </Point>
  </Placemark>
,   <Placemark>
    <name>Ogres zilie kalni</name>
    <description><p>A walking route begins here and leads over the Blue Hills of Ogre. There are a few information boards on the way, the route is quite long and does not follow one certain path. This is more likely to a park. You can bike here, since there are wide paths and no stairs. At the end of the route, there is a flooded quarry where locals swim, also a high viewing platform (tower).</p></description>
    <Point>
      <coordinates>24.5991,56.82426,0</coordinates>
    </Point>
  </Placemark>
,   <Placemark>
    <name>Numernes vaļņa taka</name>
    <description>The trail takes to you to see the Numerne Protected Area, a Nature 2000 territory. There is a viewing tower, a trail and a picnic spot. This protected area includes an esker with coniferous forests. Bog woodland and three lakes (Numerne, Vidus and Kugrinu lakes) are found next to the esker. Transitional mires have developed in Vidus and Kugrinu lakes.</description>
    <Point>
      <coordinates>27.49738,56.84587,0</coordinates>
    </Point>
  </Placemark>
,   <Placemark>
    <name>Numernes tornis</name>
    <description></description>
    <Point>
      <coordinates>27.4937687,56.8456247,0</coordinates>
    </Point>
  </Placemark>
,   <Placemark>
    <name>Niedrāju pilkas purvs</name>
    <description>A nice 1.5km duckboard trail with a small birdwatching tower. A few beautiful mire lakes can be seen. The peculiar birdwatching tower was supposed to be renovated in early 2018, so it may be closed.</description>
    <Point>
      <coordinates>24.639322,57.741426,0</coordinates>
    </Point>
  </Placemark>
,   <Placemark>
    <name>Murjāņi Sigulda</name>
    <description></description>
    <Point>
      <coordinates>24.84729,57.17594,0</coordinates>
    </Point>
  </Placemark>
,   <Placemark>
    <name>Mitoloģiskā taka pie Līgatnes bunkura</name>
    <description>A nice short walk that begins at the Ligatne soviet bunker and makes a loop along the Gauja river. There are wooden figures along the way, so children will also enjoy it.</description>
    <Point>
      <coordinates>25.069419,57.255841,0</coordinates>
    </Point>
  </Placemark>
,   <Placemark>
    <name>Mīlestības taka</name>
    <description>A nice trail near the Abuls river, starts at the Jaunaraji commercial camground. A good picnic spot is available on the way, near the river. Follow the signs to &quot;Baili&quot; from Valmiera city. Keep following signs until you see another sign for Jaunaraji. You can safely enter the campgrounds and park somewhere out of the way, the owner is friendly and allows to pass here, especially if you introduce yourself as a trail visitor.</description>
    <Point>
      <coordinates>25.49478,57.54892,0</coordinates>
    </Point>
  </Placemark>
,   <Placemark>
    <name>Mežmuižas avoti</name>
    <description>A protected area where you will find a 700 meter long trail, there is a brook with excellent drinking water at the beginning. The entrance costs 1EUR but the territory is well maintained. Nice places for a picnic with excellent surroundings.</description>
    <Point>
      <coordinates>24.8022831,57.1004198,0</coordinates>
    </Point>
  </Placemark>
,   <Placemark>
    <name>Meži ap Ādmiņa ezeru</name>
    <description>A nice picnic place near a lake. Possible to park your car some 30 meters away, to reach the lake you must walk along a forest path. At the lake there is a covered picnic table, a fire pit and a small pier on the lake. Nearby there is a tiny stream where there once was a sluice, but now all that remains is a small waterfall.</description>
    <Point>
      <coordinates>26.406984,57.265912,0</coordinates>
    </Point>
  </Placemark>
,   <Placemark>
    <name>Mērsrags - pļavas tornis</name>
    <description>A new birdwatching tower on the beach in Mersrags.</description>
    <Point>
      <coordinates>23.1242854,57.3440937,0</coordinates>
    </Point>
  </Placemark>
,   <Placemark>
    <name>Mērsrags - bākas tornis</name>
    <description></description>
    <Point>
      <coordinates>23.1232924,57.3655392,0</coordinates>
    </Point>
  </Placemark>
,   <Placemark>
    <name>Melnalkšņu dumbrāja taka</name>
    <description>A short duckboard walk near the hedquarters of Ķemeri nature protection agency. The path is newly renovated and leads along some very interesting swamp habitat.</description>
    <Point>
      <coordinates>23.5116702318,56.9527769819,0</coordinates>
    </Point>
  </Placemark>
,   <Placemark>
    <name>Melnais dīķis</name>
    <description></description>
    <Point>
      <coordinates>21.817925,57.126002,0</coordinates>
    </Point>
  </Placemark>
,   <Placemark>
    <name>Matuļu taka</name>
    <description>The owners of the nearby farmstead, the Matulu family has made a trail for children, they have made several wood carvings and other objects that will give motivation for smaller children. There is also a playground and a resting place.</description>
    <Point>
      <coordinates>26.109336,57.458245,0</coordinates>
    </Point>
  </Placemark>
,   <Placemark>
    <name>Marinzejas ezers</name>
    <description></description>
    <Point>
      <coordinates>26.375672,56.5633742,0</coordinates>
    </Point>
  </Placemark>
,   <Placemark>
    <name>Mālpils dabas taka</name>
    <description>The trail begins at a huge oak tree, where you will find a toilet and a picnic place. The route takes you along the Merga river, the views are beautiful.</description>
    <Point>
      <coordinates>24.99033,57.010593,0</coordinates>
    </Point>
  </Placemark>
,   <Placemark>
    <name>Purva trase</name>
    <description>A covered picnic table, a fire pit. The place is very remote and located at the end of a road that leads nowhere. There is no space for a tent here. Not really worth going all this way just to picnic here.</description>
    <Point>
      <coordinates>24.56291,57.94669,0</coordinates>
    </Point>
  </Placemark>
,   <Placemark>
    <name>LVM atpūtas vieta</name>
    <description>A nice picnic place with big tables under a roof, a fire pit. A quiet place, the nearby road does not have a lot of traffic. Possible to pitch a tent.</description>
    <Point>
      <coordinates>25.016386,56.483298,0</coordinates>
    </Point>
  </Placemark>
,   <Placemark>
    <name>LVM Atpūtas vieta</name>
    <description></description>
    <Point>
      <coordinates>23.0145747,56.598627,0</coordinates>
    </Point>
  </Placemark>
,   <Placemark>
    <name>Lubāna putnu tornis 2</name>
    <description>One of several birdwatching towers around the Lubana lake. The place is quite remote.</description>
    <Point>
      <coordinates>26.7678,56.71503,0</coordinates>
    </Point>
  </Placemark>
,   <Placemark>
    <name>Lubāna putnu tornis</name>
    <description>One of several birdwatching towers around the Lubana lake. The place is quite remote.</description>
    <Point>
      <coordinates>26.82157,56.79045,0</coordinates>
    </Point>
  </Placemark>
,   <Placemark>
    <name>Lubāna piknika vietas un pludmale</name>
    <description>A great place to rest and swim, a wide beach-like area, many picnic tables, parking, dressing cabins and a short walking trail.</description>
    <Point>
      <coordinates>26.934441,56.797136,0</coordinates>
    </Point>
  </Placemark>
,   <Placemark>
    <name>Ložmetējkalns</name>
    <description>The Ložmetējkalns hill is located on one of the World War I battlefields. The high tower provides an overview of the surrounding forest.</description>
    <Point>
      <coordinates>23.66051,56.86587,0</coordinates>
    </Point>
  </Placemark>
,   <Placemark>
    <name>Līgatnes upes taka</name>
    <description>A trail through an old and beautiful forest near the Ligatne river. There are many interesting bridges and a magical feeling in the air. The trail can be steep and slippery. There are few nice picnic places on the way, including fire pits. To reach this place, follow the arrows that begin at the Kigari bus stop on the Nitaure highway.</description>
    <Point>
      <coordinates>25.160309,57.127999,0</coordinates>
    </Point>
  </Placemark>
,   <Placemark>
    <name>Līgatnes dabas takas</name>
    <description>A park with possibility to see different kind of latvian animals (not caged, but in wide fenced areas), walk in a forested area an eat pancakes in a low cost cafe. Gauja river is neaby too. Entry price 1.4EUR.</description>
    <Point>
      <coordinates>25.01545,57.24806,0</coordinates>
    </Point>
  </Placemark>
,   <Placemark>
    <name>Liepājas ez. Zirgu salas (Golodova) tornis</name>
    <description>A birdwatching tower on the Horse island in Liepaja</description>
    <Point>
      <coordinates>21.0453027,56.5119719,0</coordinates>
    </Point>
  </Placemark>
,   <Placemark>
    <name>Liepājas ez. taka un tornis (Tisē iela)</name>
    <description>A 400 meter long duckboard trail leads to the Birdwatching tower on the Liepaja lake. Since it is located in a city, it can get busy and some of the infrastructure is in bad shape already.</description>
    <Point>
      <coordinates>21.0244576,56.494377,0</coordinates>
    </Point>
  </Placemark>
,   <Placemark>
    <name>Lielezera dabas taka</name>
    <description>In the city of Limbazi there is a trail around the lake. On the way you will be able to visit a pleasant birdwatching tower, cross a reed field over a boardwalk and rest in the well maintained beach area.</description>
    <Point>
      <coordinates>24.70406,57.50258,0</coordinates>
    </Point>
  </Placemark>
,   <Placemark>
    <name>Lielais liepu kalns ar skatu torni</name>
    <description>The highest wooden tower in Latvia (34m) sits on top of the Lielais Liepu kalns (The Big Linden hill, literally). On the way to the tower you will walk on a 890m path with information boards and will see a few very nice picnic places with fire pits and tent places.</description>
    <Point>
      <coordinates>27.6547405,56.270791,0</coordinates>
    </Point>
  </Placemark>
,   <Placemark>
    <name>Līču Laņģu klintis</name>
    <description><p class="lead">The Līču-Laņģu sanstone cliffs are around one kilometer long, and a stunning place to visit.</p>

<p>The route is marked for around 6km, but options exist to shorten or extend your walk. Recommended to make a photo of the map on the first information board, it is detailed and good. Formerly a popular hikers area, now in 2015 a more specific route was marked in cooperation with EU and nature protection services, to protect the sandstone cliffs and nature around them.&nbsp; Although on the way you will see an arrow to the Grivini picnic place, indicating only 2km distance, follow this sign only after you have seen the kilometer long sandstone cliff formation, and if you want to hike through an unmaintained forest, crossing two rivers and following GPS maps, since there are no markings or easily visible trail to follow.&nbsp;</p></description>
    <Point>
      <coordinates>25.4170417,57.390544,0</coordinates>
    </Point>
  </Placemark>
,   <Placemark>
    <name>Lejas ezera atpūtas vieta</name>
    <description>A picnic place at the Lejas lake, possibility to make a fire and pitch a tent.</description>
    <Point>
      <coordinates>24.442064,56.784705,0</coordinates>
    </Point>
  </Placemark>
,   <Placemark>
    <name>Lāčupes dendroloģiskā taka</name>
    <description>An interesting walk near a small stream. Could be hard to find, because there is no sign to it, and there is a distracting bigger trail that leads to the beach. Follow our map. The Dendrarium contains many foreing trees and bushes.</description>
    <Point>
      <coordinates>23.35242,57.0464,0</coordinates>
    </Point>
  </Placemark>
,   <Placemark>
    <name>Kupskalnu dabas taka</name>
    <description>A very short walk to the beach, free parking and good for a stroller. The view to the Riga bay is wonderful here.</description>
    <Point>
      <coordinates>23.52379,56.99134,0</coordinates>
    </Point>
  </Placemark>
,   <Placemark>
    <name>Kuivižu putnu tornis</name>
    <description></description>
    <Point>
      <coordinates>24.335983,57.825652,0</coordinates>
    </Point>
  </Placemark>
,   <Placemark>
    <name>Kubeseles dabas taka</name>
    <description>A nice walk where you can see forests, caves, streams and the river Gauja. Parking is free, near the church. Trail begins behind the church buildings, walk down the long stairway and turn left after the tiny bridge.</description>
    <Point>
      <coordinates>24.76881,57.16365,0</coordinates>
    </Point>
  </Placemark>
,   <Placemark>
    <name>Krustkalnu skatu tornis</name>
    <description>A very high metallic viewing tower in the Krustkalni nature reserve. Nothing much else here, just a huge tower.</description>
    <Point>
      <coordinates>26.1414,56.7306,0</coordinates>
    </Point>
  </Placemark>
,   <Placemark>
    <name>Kristakrūga tornis</name>
    <description>A very high metallic viewing tower in the Teiči nature reserve. Nothing much else here, just a huge tower, recently built, located at the side of a highway.</description>
    <Point>
      <coordinates>26.5676943,56.5389668,0</coordinates>
    </Point>
  </Placemark>
,   <Placemark>
    <name>Krišjāņu Staburags</name>
    <description></description>
    <Point>
      <coordinates>27.289815,56.803354,0</coordinates>
    </Point>
  </Placemark>
,   <Placemark>
    <name>Kravcovka</name>
    <description></description>
    <Point>
      <coordinates>27.805203,56.730372,0</coordinates>
    </Point>
  </Placemark>
,   <Placemark>
    <name>Krāslavas priežu sils</name>
    <description>Camping place near the city, in a park like forest. Nothing special.</description>
    <Point>
      <coordinates>27.18901,55.885893,0</coordinates>
    </Point>
  </Placemark>
,   <Placemark>
    <name>Komsomoļskaja izba</name>
    <description></description>
    <Point>
      <coordinates>26.789003,55.720278,0</coordinates>
    </Point>
  </Placemark>
,   <Placemark>
    <name>Kolkas putnu tornis</name>
    <description>A high observation tower in Kolka. Free parking and toilets nearby.</description>
    <Point>
      <coordinates>22.592021227,57.757802104,0</coordinates>
    </Point>
  </Placemark>
,   <Placemark>
    <name>Kolkas priežu taka</name>
    <description>A nice stroll though beautiful pines near the sea. The trail ends at a big viewing tower. The free parking has plenty of space so you can explore the area. There are big and comfortable toilets at the start of the trail, one of them wheelchair accessible</description>
    <Point>
      <coordinates>22.5905513763,57.7563424985,0</coordinates>
    </Point>
  </Placemark>
,   <Placemark>
    <name>Kokšu ezera taka</name>
    <description>Not really a trail, more of a forest route with no special trail, only arrows marking the suggested direction. You can see several forest lakes and a typical Latvian forest habitat. The lakes have nice picnic places.</description>
    <Point>
      <coordinates>26.071,57.6753,0</coordinates>
    </Point>
  </Placemark>
,   <Placemark>
    <name>Kokneses dabas taka</name>
    <description>The trail starts near the Koknese church, where you can leave your car. On the way there are several resting places with fire pits, but no benches. Koknese has plenty to offer, don&#039;t miss the castle ruins and the parks. This particular trail leads to the Liktendarzs (Destiny garden), so altogether you can make this a whole day walk.</description>
    <Point>
      <coordinates>25.43403,56.64129,0</coordinates>
    </Point>
  </Placemark>
,   <Placemark>
    <name>Ķirbižu meža taka</name>
    <description>An interesting forest trail, looks like not many people have visited it. Many old trees and a feeling of an old forest. Can park near the Forest museum. Warning! Some visitors report that the bridge is out. May not be possible to fully complete the trail. </description>
    <Point>
      <coordinates>24.49082,57.651,0</coordinates>
    </Point>
  </Placemark>
,   <Placemark>
    <name>Ķengaraga putnu tornis</name>
    <description>A nice place to have an evening walk right in the city. Views of Daugava river, benches and a long promenade. The birdwatching tower is located in an area where lots of birds flock, especially in the winter. Free parking.</description>
    <Point>
      <coordinates>24.19276,56.89936,0</coordinates>
    </Point>
  </Placemark>
,   <Placemark>
    <name>Ziloņa ezers</name>
    <description>Several picnic tables around the Zilona lake. A few have just a table, but others have a roof over it. Nice views on the lake. The best table is between the lakes and the one on the north shore.</description>
    <Point>
      <coordinates>22.2809309,57.1221528,0</coordinates>
    </Point>
  </Placemark>
,   <Placemark>
    <name>Zilo kalnu kraujas tornis</name>
    <description>A viewing platform near the Zilo kalnu (Blue hills) steep, right next to the highway from Dundaga to Mazirbe. A nice view, you can see the sea.</description>
    <Point>
      <coordinates>22.27717,57.62435,0</coordinates>
    </Point>
  </Placemark>
,   <Placemark>
    <name>Zīles taka</name>
    <description>The trail begins in the hamlet of Zile, the trail goes through an old forest with many fallen branches and thick, mossy trees. There are many information boards, bridges and a picnic place at the furthest point.</description>
    <Point>
      <coordinates>26.04685,57.70281,0</coordinates>
    </Point>
  </Placemark>
,   <Placemark>
    <name>Žīguri</name>
    <description>A covered picnic table, a fire pit and some other extras, but since this place is very near a populated place, it is very popular with local teens, so most likely you will find plenty of trash and unexpected party people in the middle of the night. Better visit the nearby Pond location (see map).</description>
    <Point>
      <coordinates>27.660503,57.271597,0</coordinates>
    </Point>
  </Placemark>
,   <Placemark>
    <name>Ziemeļgaujas skatu tornis</name>
    <description>A new, very tall tower, opened in 2015, shows the surrounding forests and a little bit of Gauja river.</description>
    <Point>
      <coordinates>26.200806,57.664389,0</coordinates>
    </Point>
  </Placemark>
,   <Placemark>
    <name>Žibgravas veselības taka</name>
    <description>This trail is located near the Zibgrava ravine and the Kaulina river. There is a picnic spot at the start of the trail.</description>
    <Point>
      <coordinates>21.578783,56.984217,0</coordinates>
    </Point>
  </Placemark>
,   <Placemark>
    <name>Zārdava</name>
    <description>A picnic spot</description>
    <Point>
      <coordinates>22.049393,57.106868,0</coordinates>
    </Point>
  </Placemark>
,   <Placemark>
    <name>Zaņas līkloči</name>
    <description>An old and unkept trail along the Zana river. The trail is made in three sections, the total length in one direction is 4.5Km, but there has been no upkeep so only the first short section can actually be found. The rest is grown in with weeds and bushes, no signs left. The first section goes along the picturesque Zana river, there are also a few picnic places on the way back, on the other side of the river. </description>
    <Point>
      <coordinates>22.18053,56.45708,0</coordinates>
    </Point>
  </Placemark>
,   <Placemark>
    <name>Zaķumuižas dabas taka</name>
    <description>This childrens learning trail starts in front of a kindergarden and leads along a river, where you will also see the local manor complex and a portion of the forest. The path makes for a nice stroll or a short city getaway. It is located within a populated area, but you will probably not meet many people.</description>
    <Point>
      <coordinates>24.48797,56.96952,0</coordinates>
    </Point>
  </Placemark>
,   <Placemark>
    <name>Zaķu pļava (aiz muižas pie upes)</name>
    <description>On the Hare meadow you can enjoy the cultural history of the local area and drink from the Lielmate spring.</description>
    <Point>
      <coordinates>23.539242,56.418578,0</coordinates>
    </Point>
  </Placemark>
,   <Placemark>
    <name>Zaķu pļava</name>
    <description>The Zaku meadow (literaly, Hare meadow) is located in the Vilce nature park. There are two huge picnic areas with sheltered tables and fire pits. The marked location is also the start of the Counts trail, which leads along the river and is 2.5km  long.</description>
    <Point>
      <coordinates>23.530341,56.42337,0</coordinates>
    </Point>
  </Placemark>
,   <Placemark>
    <name>Vizlas taka</name>
    <description>The beautiful path starts at the Vizla river bridge. It is the oldest arch bridge in Latvia, built around 1860. 

The Vizla river flows into the the river Gauja and by walking this path you will reach the Vizla entry point into Gauja. On the way you can see dolomite cliffs and the enormous Vizla stone. The path is 1.2 km long and you will require around one hour. In the beginning, you will walk around a wooden plank path, later on a earthen path, but the last section is along a road. 

The path leads along a local farmhouse, where you can see a few cows and the latvian way of life. </description>
    <Point>
      <coordinates>26.34762,57.43061,0</coordinates>
    </Point>
  </Placemark>
,   <Placemark>
    <name>Virsaišu ūdenskrituma taka</name>
    <description>The 1.7 meters tall Virsaisi waterfall was chosen as the 2010. geologic object of Latvia. The trail is marked with an arrow from the nearby road, and finishes at the waterfall. You can take the road back. There is a picnic site with a table at the waterfall.</description>
    <Point>
      <coordinates>22.54209,57.09328,0</coordinates>
    </Point>
  </Placemark>
,   <Placemark>
    <name>Vikmestes taka</name>
    <description>A new trail in Sigulda, which starts on the Turaida-Ragana road. There is a hidden parking place on a barely visible road, slow down or you will miss it. It is approximately opposite the Reina ski hill. The trail leads to the Serpentine road and has plenty of beautiful views in any season. Optional detours exist on the way, with possibility to climb the famous Sigulda hills to see the surroundings.</description>
    <Point>
      <coordinates>24.8227603,57.1790199,0</coordinates>
    </Point>
  </Placemark>
,   <Placemark>
    <name>Viešūra ezera dabas taka</name>
    <description>Trail that leads to the Viesura lake, it doesn&#039;t make a loop, so you will have to retrace your walk, totaling 3km. The trail is not in a good condition, but the picnic spot at the beginning is pretty new.</description>
    <Point>
      <coordinates>25.9891576,56.8911085,0</coordinates>
    </Point>
  </Placemark>
,   <Placemark>
    <name>Viesatas upesloku takas</name>
    <description><p class="lead">The Viesata river trail is probably our favorite trail in Latvia.</p>

<p>There are several routes you can take, the trail has wonderful picnic places on the way, river views, cliffs, a huge stone and more. The trail has a few routes, but we recommend to take the red&nbsp;trail in the beginning, and one of the other trails for coming back, since the red one has the best views. The first picnic place is some 2km away, so bring all the necessities with you, running back to the car will be tiresome.&nbsp;</p></description>
    <Point>
      <coordinates>22.9720596,56.8236003,0</coordinates>
    </Point>
  </Placemark>
,   <Placemark>
    <name>Vesetas purva laipa</name>
    <description>Trail located in the area of the Veseta bottomland, mostly made from wooden planks, which barely save you from wet shoes. The trail is quite old and rarely visited, since there exists no sign. Follow our map and you will find this quite interesting place in the middle of nowhere.</description>
    <Point>
      <coordinates>25.8236047,56.6964547,0</coordinates>
    </Point>
  </Placemark>
,   <Placemark>
    <name>Ventspils piekraste</name>
    <description>A picnic spot near the sea</description>
    <Point>
      <coordinates>21.47777,57.342096,0</coordinates>
    </Point>
  </Placemark>
,   <Placemark>
    <name>Ventspils piekraste</name>
    <description>A picnic spot near the sea</description>
    <Point>
      <coordinates>21.499209,57.356291,0</coordinates>
    </Point>
  </Placemark>
,   <Placemark>
    <name>Velnkalna taka</name>
    <description>An old and short trail, made back in 2006. The condition is not good right now. Many bridges and paths are grown into the forest. The trail is not near a road, you have to walk around 500m from the parking place until you can start looking for it (no sign either).</description>
    <Point>
      <coordinates>25.27013,57.67268,0</coordinates>
    </Point>
  </Placemark>
,   <Placemark>
    <name>Vekšu taka</name>
    <description>This trail is located 2.1km from Zīle settlement, as a continuation of the Zile nature trail. Information boards will teach you about the plants and insects of this area.</description>
    <Point>
      <coordinates>26.05285,57.69667,0</coordinates>
    </Point>
  </Placemark>
,   <Placemark>
    <name>Vedzes dabas taka</name>
    <description>A recently renovated, quite wild path in a remote area. A small river, dense forest and even a swamp with a sinkhole can be observed on the way. People with interest in the wilder nature will enjoy this walk. This path starts in a remote area. There is one place for parking, but not much else at the marked trailhead. The path is not covered, basically a narrow path in the forest ground. Follow the directional arrows or marker poles. Around 600m from the trailhead there is a fork with a separate path to a picnic area. The place is neat, in a river curve. There is a table and a firepit. If you continue the path, it will follow the riverbank and then fork to make a loop (you will return in the fork). Be aware that some portions of the trail can be wet and the ground can get muddy there, so good shoes are recommended. One part even leads through a swampy area (see photos). Another small path leads to the swamp sinhole, which can be an interesting (or even scary) sight. The path will then continue through a bit of cut down forest and will then circle back to the part where you have already been - follow the path back to the beginning now. 

The total distance is just below 3KM. </description>
    <Point>
      <coordinates>25.43373,56.95766,0</coordinates>
    </Point>
  </Placemark>
,   <Placemark>
    <name>Vecupes taka</name>
    <description>A short path that leads to the beach, where you will find picnic tables, a toilet. A scenic place where you can enjoy a peaceful time near the sea.</description>
    <Point>
      <coordinates>23.22156,57.17787,0</coordinates>
    </Point>
  </Placemark>
,   <Placemark>
    <name>Vasenieku purva taka</name>
    <description>The 4km trail made of wooden planks gives wonderful views of the Vasenieki mire. There is a picnic place in the beginnng and a birdwatching tower along the way.</description>
    <Point>
      <coordinates>22.15384,57.35642,0</coordinates>
    </Point>
  </Placemark>
,   <Placemark>
    <name>Valguma dabas gleznu taka</name>
    <description>This three kilometer walk brings you through a foresty area near the Valguma lake and the Slocene river. Starts inside a hotel complex, but access is free.</description>
    <Point>
      <coordinates>23.31532,56.99007,0</coordinates>
    </Point>
  </Placemark>
,   <Placemark>
    <name>Valguma baskāju taka</name>
    <description>The Baskāju trail (literally, the barefoot trail) is a special obstacle course, if you will, for walking barefoot. A fun experience and you even get to walk in white mud and through a river. The lenght is 2km and it costs 4EUR per person.</description>
    <Point>
      <coordinates>23.31575,56.98946,0</coordinates>
    </Point>
  </Placemark>
,   <Placemark>
    <name>Vaidavas dabas taka</name>
    <description>The information boards along the Vaidava river will teach you about the valleys nature and history, as well as boating possibilities in the Vaidava river. The main objects of interest are located in the beginning of the route, the Ragana cliffs, the Raganina spring, the Acu spring. There are picnic places, a shelter, swings and a toilet.</description>
    <Point>
      <coordinates>26.70534,57.54041,0</coordinates>
    </Point>
  </Placemark>
,   <Placemark>
    <name>Užavas grīvas taka</name>
    <description>The trail starts at the Uzava river creek, there is a parking place and a camping spot with benches and a table for a picnic. You can build tents here as well. The Uzava river is one of the few places where you can observe unregulated river flow into the sea.</description>
    <Point>
      <coordinates>21.41336,57.247411,0</coordinates>
    </Point>
  </Placemark>
,   <Placemark>
    <name>Užavas bāka</name>
    <description>A resting spot near the Uzava lighthouse</description>
    <Point>
      <coordinates>21.415662,57.209725,0</coordinates>
    </Point>
  </Placemark>
,   <Placemark>
    <name>Ukru gāršas piknika vietas</name>
    <description>A table, fire pit, an open space for tents. Neaby there is a nature trail. The Ukru forest is a protected area due to the old oaks it&#039;s unmaintained nature.</description>
    <Point>
      <coordinates>23.2094711065,56.3794742244,0</coordinates>
    </Point>
  </Placemark>
,   <Placemark>
    <name>Ukru gārša</name>
    <description>The Ukru gārša is a proteted are more than 1135 hectares large, near Bukaiši and Ukri. A trail has been created to allow visitors to this site. The shortest route is 1550 meters. At the start of the trail, there is a spaceous picnic area with a picnic shelter, firepit, benches and plenty of space for tents. The trail starts across the road from the picnic area, parallel to the ditch. 

<em>Warning: It has come to our attention, that this trail will cease to be maintained and eventually only the derelict picnic spot will remain here.</em></description>
    <Point>
      <coordinates>23.2103455067,56.3798781727,0</coordinates>
    </Point>
  </Placemark>
,   <Placemark>
    <name>Ūdru kalna skatu tornis</name>
    <description>This is a 26.5m high tower with views to the Usma lake and it&#039;s islands. There is a short path that leads to the tower.</description>
    <Point>
      <coordinates>22.216038,57.21099,0</coordinates>
    </Point>
  </Placemark>
,   <Placemark>
    <name>Ūdenstūristu nakšņošanas vieta pie Pededzes</name>
    <description>A resting place near the Pededze river, made by river tourists, but accessible by road. There is a fire place, firewood. The access to the river is very steep, lowering a boat would be difficult.</description>
    <Point>
      <coordinates>27.085094,57.281746,0</coordinates>
    </Point>
  </Placemark>
,   <Placemark>
    <name>Tolkāja tornis</name>
    <description>The Teici nature reserve is the highest level of protective area. This tower is one of the few places where you are allowed to see it. A good place for birdwatching.</description>
    <Point>
      <coordinates>26.45573,56.64875,0</coordinates>
    </Point>
  </Placemark>
,   <Placemark>
    <name>Tīrumnieku purva taka</name>
    <description>A short, but beautiful trail that runs in a circular path, along a small swamp lake.</description>
    <Point>
      <coordinates>26.946231,56.717542,0</coordinates>
    </Point>
  </Placemark>
,   <Placemark>
    <name>Timsmales baltezers</name>
    <description>Several nice picnic places near the Timsmales lake. Popular amongst the locals, so free spots could become available only in late hours. The lake is one of Latvias clearest lakes, made into a protected area due to abundance of the rare floating bur-reeds (also known as narrowleaf bur-reed)</description>
    <Point>
      <coordinates>26.18959,56.6311,0</coordinates>
    </Point>
  </Placemark>
,   <Placemark>
    <name>Tērvetes dabas parks</name>
    <description>A big territory with many activities, there is an information centre, several cafes, many playgrounds for children and all kinds of beautiful wooden carvings. Recommended for families with younger children</description>
    <Point>
      <coordinates>23.37283,56.48766,0</coordinates>
    </Point>
  </Placemark>
,   <Placemark>
    <name>Tālivalža grava</name>
    <description>A trail with activity elements, a picnic place and a covered table. The trail is made by locals with help from foreign exchange students. The trail is quite old, so many elements have grown back into the forest which they were made from.</description>
    <Point>
      <coordinates>25.552021,56.255963,0</coordinates>
    </Point>
  </Placemark>
,   <Placemark>
    <name>Svētes piknika vieta</name>
    <description>Picnic tables and a fire place near the Svete river</description>
    <Point>
      <coordinates>23.63171,56.6921,0</coordinates>
    </Point>
  </Placemark>
,   <Placemark>
    <name>Strenču pilsētas taka</name>
    <description>Several walking routes 1-5.5km in length, there are picnic spots, a beautiful forest and of course the Gauja river</description>
    <Point>
      <coordinates>25.712355,57.628508,0</coordinates>
    </Point>
  </Placemark>
,   <Placemark>
    <name>Stiglovas grava</name>
    <description>This route will mostly appeal to those who appreciate unspoiled woods and grown in trails. The infrastructure is mostly gone and there are many bushes and weeds that you will have to overcome to follow this dark and shadowy trail. The Stiglova ravine is a good place to see the white and brown devon sandstone slopes and outcrops.</description>
    <Point>
      <coordinates>27.5578813,57.0389982,0</coordinates>
    </Point>
  </Placemark>
,   <Placemark>
    <name>Špakovska parks</name>
    <description>The dendrologic park Lazdukalni, also known as the Spakovsky park contains more than 7000 plants, 412 species of trees and other garden varieties. There is a pond, a viewing platform and plenty of space to sit down and have a picnic.</description>
    <Point>
      <coordinates>24.63524,56.80233,0</coordinates>
    </Point>
  </Placemark>
,   <Placemark>
    <name>Smiltiņkalns</name>
    <description>This is the highest point in the Eastern Kurland area, where you can ascend to a viewing  platform. There is a covered picnic table, benches and a fire place.</description>
    <Point>
      <coordinates>22.749994,56.854922,0</coordinates>
    </Point>
  </Placemark>
,   <Placemark>
    <name>Slokas ezera putnu tornis</name>
    <description>An easily accessible birdwatching tower, located right on the Sloka lake. The tower is small, but provides a good view of the area. An old walking trail is nearby.</description>
    <Point>
      <coordinates>23.547032475,56.957612319,0</coordinates>
    </Point>
  </Placemark>
,   <Placemark>
    <name>Slokas ezera dabas taka</name>
    <description><p>The trail starts at the Sloka lake birdwatching tower. The trail is pretty wet most of the year, so good boots required. At the end of the trail you will find a few wooden excercise installations for children.</p></description>
    <Point>
      <coordinates>23.54637,56.95731,0</coordinates>
    </Point>
  </Placemark>
,   <Placemark>
    <name>Šlīteres dabas taka</name>
    <description>This trail starts at the Slitere lighhouse, which, curiously, is not located anywhere near the sea. The place is located inside the Slitere Nature Reserve, the highest protection status.</description>
    <Point>
      <coordinates>22.2891495,57.6287644,0</coordinates>
    </Point>
  </Placemark>
,   <Placemark>
    <name>Skaņākalna taka</name>
    <description>A most wonderful trail along the Salaca river. You will see cliffs, caves, streams and forests. The trail is decorated with wooden carvings, children playgrounds and picnic spots. Since this is a maintained park, entry costs 1.5EUR per person or 5 EUR per car, but better leave the car at the ticket booth and walk along the small trail - the road is very boring.</description>
    <Point>
      <coordinates>25.0260725,57.8632307,0</coordinates>
    </Point>
  </Placemark>
,   <Placemark>
    <name>Sigulda Līgatne</name>
    <description>a 20.5km long one way route from Sigulda to the Ligatne nature trail complex. The route is marked with blue rhombs.</description>
    <Point>
      <coordinates>24.8623,57.1706,0</coordinates>
    </Point>
  </Placemark>
,   <Placemark>
    <name>Sietiņiezis un taka</name>
    <description><p>The Sietiņiezis cliff is made of white sandstone, the biggest in Latvia. You will find a picnic area and a few short walking paths in the area. Wonderful views of the Gauja river.</p></description>
    <Point>
      <coordinates>25.38287,57.43068,0</coordinates>
    </Point>
  </Placemark>
,   <Placemark>
    <name>Sēravots pie Gaujas</name>
    <description>A nice resting place near Gauja river, accessible both from the road and from the river. There is a small stream with fresh water coming from under a rock, suitable for drinking. Table, fire place, plenty of tent space.</description>
    <Point>
      <coordinates>26.553522,57.268033,0</coordinates>
    </Point>
  </Placemark>
,   <Placemark>
    <name>Senču svētkalniņa atpūtas vieta</name>
    <description>Near the Daugmales mound you will see a sign to the Ancestor Holy Mound. A nice place with tables, toilets, fireplaces, right next to river Daugava</description>
    <Point>
      <coordinates>24.403456,56.831173,0</coordinates>
    </Point>
  </Placemark>
,   <Placemark>
    <name>Sedas purva tornis 2</name>
    <description>The Seda mire is an interesting area, with it&#039;s soviet style village and surroundings, it is worth a trip. The birdwatching towers are recently built and provide some of the best birdwatching options in the country.</description>
    <Point>
      <coordinates>25.7603254,57.6831054,0</coordinates>
    </Point>
  </Placemark>
,   <Placemark>
    <name>Sedas purva tornis</name>
    <description>The Seda mire is an interesting area, with it&#039;s soviet style village and surroundings, it is worth a trip. The birdwatching towers are recently built and provide some of the best birdwatching options in the country. The game of towers ornithologist competition takes place here. The access to this tower is from the Jerceni village direction.</description>
    <Point>
      <coordinates>25.7185,57.71,0</coordinates>
    </Point>
  </Placemark>
,   <Placemark>
    <name>Tilderu dabas taka</name>
    <description>A short nature trail near the river Gauja. Has a few dolomite outcrops on the way. At the end of the trail, there are long stairs that lead down to the river, but there is no resting place.</description>
    <Point>
      <coordinates>26.34319,57.4544,0</coordinates>
    </Point>
  </Placemark>
,   <Placemark>
    <name>Karjamaa lõkkekoht</name>
    <description>RMK camp site</description>
    <Point>
      <coordinates>27.49319,59.01043,0</coordinates>
    </Point>
  </Placemark>
,   <Placemark>
    <name>Kalvi lõkkekoht</name>
    <description>RMK camp site</description>
    <Point>
      <coordinates>26.7861,59.48457,0</coordinates>
    </Point>
  </Placemark>